{
    "type": "FeatureCollection",
    "name": "schulenNRW",
    "crs": { "type": "name", "properties": { "name": "urn:ogc:def:crs:OGC:1.3:CRS84" } },
    "features": [
    { "type": "Feature", "properties": { "Id": "0", "Schulnumme": "100000", "Schulform": "Weiterbildungskolleg", "Name": "Studienkolleg des Ökumenischen", "Kurzname": "Bochum, WBK KOL Studienkolleg", "Adresse": "Girondelle 80", "Postleitza": "44799", "Ort": "Bochum", "Schueler": "0", "Rufnummer": "02349388231", "Email": "100000@schule.nrw.de" }, "geometry": { "type": "Point", "coordinates": [ 7.246666171599752, 51.454733824960769 ] } },
    { "type": "Feature", "properties": { "Id": "0", "Schulnumme": "100010", "Schulform": "Gymnasium", "Name": "Gymnasium Claudia Agrippina Privat", "Kurzname": "Köln, Gym Gymnasium Claudia Agrippina", "Adresse": "Stolberger Str. 112", "Postleitza": "50933", "Ort": "Köln", "Schueler": "101", "Rufnummer": "022137996433", "Email": "100010@schule.nrw.de" }, "geometry": { "type": "Point", "coordinates": [ 6.897017373118707, 50.942171528308336 ] } },
    { "type": "Feature", "properties": { "Id": "0", "Schulnumme": "100011", "Schulform": "Gesamtschule", "Name": "Städt. Gesamtschule", "Kurzname": "Haan, GE Walder Straße", "Adresse": "Walder Str. 15", "Postleitza": "42781", "Ort": "Haan", "Schueler": "647", "Rufnummer": "021293754950", "Email": "100011@schule.nrw.de" }, "geometry": { "type": "Point", "coordinates": [ 7.017391556924394, 51.193326522247879 ] } },
    { "type": "Feature", "properties": { "Id": "0", "Schulnumme": "100012", "Schulform": "Grundschule", "Name": "Städt. Gemeinschaftsgrundschule", "Kurzname": "Leverkusen, GG Am Friedenspark", "Adresse": "Netzestr. 12", "Postleitza": "51371", "Ort": "Leverkusen", "Schueler": "373", "Rufnummer": "0214310830", "Email": "100012@schule.nrw.de" }, "geometry": { "type": "Point", "coordinates": [ 6.953222982461719, 51.059944548087614 ] } },
    { "type": "Feature", "properties": { "Id": "0", "Schulnumme": "100014", "Schulform": "Grundschule", "Name": "Kolibri-Schule", "Kurzname": "Herne, GG Kolibri-Schule", "Adresse": "Jean-Vogel-Str. 36", "Postleitza": "44625", "Ort": "Herne", "Schueler": "434", "Rufnummer": "02323163970", "Email": "100014@schule.nrw.de" }, "geometry": { "type": "Point", "coordinates": [ 7.224247650705774, 51.528316411071891 ] } },
    { "type": "Feature", "properties": { "Id": "0", "Schulnumme": "100015", "Schulform": "Gymnasium", "Name": "Städt. Wim-Wenders-Gymnasium", "Kurzname": "Düsseldorf, Gym Wim-Wenders", "Adresse": "Schmiedestr. 25", "Postleitza": "40227", "Ort": "Düsseldorf", "Schueler": "526", "Rufnummer": "02118924260", "Email": "100015@schule.nrw.de" }, "geometry": { "type": "Point", "coordinates": [ 6.805803865481173, 51.210836301566829 ] } },
    { "type": "Feature", "properties": { "Id": "0", "Schulnumme": "100016", "Schulform": "Gesamtschule", "Name": "Kupferstädter Gesamtschule", "Kurzname": "Stolberg, GE Kupferstädter", "Adresse": "Breslauer Str. 1", "Postleitza": "52222", "Ort": "Stolberg (Rhld.)", "Schueler": "774", "Rufnummer": "024029975610", "Email": "100016@schule.nrw.de" }, "geometry": { "type": "Point", "coordinates": [ 6.227247982515127, 50.78223077571873 ] } },
    { "type": "Feature", "properties": { "Id": "0", "Schulnumme": "100017", "Schulform": "Grundschule", "Name": "Städt. Gem. Grundschule", "Kurzname": "Hürth, GG Bonnstraße", "Adresse": "Bonnstr. 109", "Postleitza": "50354", "Ort": "Hürth", "Schueler": "190", "Rufnummer": "02233974420", "Email": "100017@schule.nrw.de" }, "geometry": { "type": "Point", "coordinates": [ 6.883197628106646, 50.880034783453262 ] } },
    { "type": "Feature", "properties": { "Id": "0", "Schulnumme": "100018", "Schulform": "Waldorfschule", "Name": "Freie Waldorfschule Rudolf Steiner Schu-", "Kurzname": "Essen, FW Schellstraße", "Adresse": "Schellstr. 47", "Postleitza": "45134", "Ort": "Essen", "Schueler": "616", "Rufnummer": "0201435150", "Email": "100018@schule.nrw.de" }, "geometry": { "type": "Point", "coordinates": [ 7.029305136444026, 51.41488616720634 ] } },
    { "type": "Feature", "properties": { "Id": "0", "Schulnumme": "100019", "Schulform": "Gesamtschule", "Name": "Joseph Beuys Gesamtschule", "Kurzname": "Kleve, GE Joseph Beuys", "Adresse": "Ackerstr. 80", "Postleitza": "47533", "Ort": "Kleve", "Schueler": "865", "Rufnummer": "028219977690", "Email": "100019@schule.nrw.de" }, "geometry": { "type": "Point", "coordinates": [ 6.123004498634171, 51.780120851333479 ] } },
    { "type": "Feature", "properties": { "Id": "0", "Schulnumme": "100020", "Schulform": "Grundschule", "Name": "Städt. Kath. Grundschule", "Kurzname": "Düsseldorf, KG Kartause-Hain-Schule", "Adresse": "Unterrather Str. 76", "Postleitza": "40468", "Ort": "Düsseldorf", "Schueler": "180", "Rufnummer": "02114791163", "Email": "100020@schule.nrw.de" }, "geometry": { "type": "Point", "coordinates": [ 6.783118163917975, 51.275000414585861 ] } },
    { "type": "Feature", "properties": { "Id": "0", "Schulnumme": "100021", "Schulform": "Gesamtschule", "Name": "Rupert-Neudeck-Gesamtschule der Stadt", "Kurzname": "Tönisvorst, GE Rupert-Neudeck", "Adresse": "Corneliusstr. 25", "Postleitza": "47918", "Ort": "Tönisvorst", "Schueler": "859", "Rufnummer": "02151792650", "Email": "100021@schule.nrw.de" }, "geometry": { "type": "Point", "coordinates": [ 6.485940376240698, 51.316867771955209 ] } },
    { "type": "Feature", "properties": { "Id": "0", "Schulnumme": "100022", "Schulform": "Gemeinschaftsschule (Schulversuch)", "Name": "Sekundarschule Medebach-Winterberg", "Kurzname": "Medebach, SK Medebach-Winterberg", "Adresse": "Schützenstr. 12", "Postleitza": "59964", "Ort": "Medebach", "Schueler": "710", "Rufnummer": "02982922930", "Email": "100022@schule.nrw.de" }, "geometry": { "type": "Point", "coordinates": [ 8.701027915804662, 51.194276459083298 ] } },
    { "type": "Feature", "properties": { "Id": "0", "Schulnumme": "100023", "Schulform": "Gesamtschule", "Name": "Gesamtschule Lengerich/Tecklenburg", "Kurzname": "Lengerich, GE Lengerich/Tecklenburg", "Adresse": "Bahnhofstr. 114", "Postleitza": "49525", "Ort": "Lengerich", "Schueler": "915", "Rufnummer": "05481338510", "Email": "100023@schule.nrw.de" }, "geometry": { "type": "Point", "coordinates": [ 7.869015853106885, 52.182098833988924 ] } },
    { "type": "Feature", "properties": { "Id": "0", "Schulnumme": "100024", "Schulform": "Gesamtschule", "Name": "Euregioschule Gesamtschule der Stadt", "Kurzname": "Gronau, GE Euregioschule", "Adresse": "Gildehauser Damm 49", "Postleitza": "48599", "Ort": "Gronau (Westf.)", "Schueler": "742", "Rufnummer": "025654019761", "Email": "100024@schule.nrw.de" }, "geometry": { "type": "Point", "coordinates": [ 7.040683541770002, 52.186165712374844 ] } },
    { "type": "Feature", "properties": { "Id": "0", "Schulnumme": "100025", "Schulform": "Gesamtschule", "Name": "Montessori Gesamtschule Sendenhorst", "Kurzname": "Sendenhorst, GE Teigelkamp", "Adresse": "Teigelkamp 5", "Postleitza": "48324", "Ort": "Sendenhorst", "Schueler": "203", "Rufnummer": "02526937407", "Email": "100025@schule.nrw.de" }, "geometry": { "type": "Point", "coordinates": [ 7.833746518642972, 51.840424249612681 ] } },
    { "type": "Feature", "properties": { "Id": "0", "Schulnumme": "100026", "Schulform": "Grundschule", "Name": "Schule unter der Iburg", "Kurzname": "Bad Driburg, GG Schule unter der Iburg", "Adresse": "Jahnstr. 12", "Postleitza": "33014", "Ort": "Bad Driburg", "Schueler": "522", "Rufnummer": "052533894", "Email": "100026@schule.nrw.de" }, "geometry": { "type": "Point", "coordinates": [ 9.015161618989527, 51.734488082669941 ] } },
    { "type": "Feature", "properties": { "Id": "0", "Schulnumme": "100027", "Schulform": "Förderschule", "Name": "Kompass-Schule", "Kurzname": "Münster, FÖ SL Kompass-Schule", "Adresse": "Bröderichweg 36", "Postleitza": "48159", "Ort": "Münster", "Schueler": "0", "Rufnummer": "0251390030", "Email": "100027@schule.nrw.de" }, "geometry": { "type": "Point", "coordinates": [ 7.61636657181525, 51.99289614670009 ] } },
    { "type": "Feature", "properties": { "Id": "0", "Schulnumme": "100028", "Schulform": "Realschule", "Name": "Realschule im Bezirk Zollverein", "Kurzname": "Essen, RS im Bezirk Zollverein", "Adresse": "Gelsenkirchener Str. 138 a", "Postleitza": "45309", "Ort": "Essen", "Schueler": "479", "Rufnummer": "02018561430", "Email": "100028@schule.nrw.de" }, "geometry": { "type": "Point", "coordinates": [ 7.04557202324793, 51.484611329616932 ] } },
    { "type": "Feature", "properties": { "Id": "0", "Schulnumme": "100029", "Schulform": "Grundschule", "Name": "Schule an der Oranienstraße", "Kurzname": "Oberhausen,GG Schule a. d. Oranienstraße", "Adresse": "Oranienstr. 57", "Postleitza": "46147", "Ort": "Oberhausen", "Schueler": "288", "Rufnummer": "020830977970", "Email": "100029@schule.nrw.de" }, "geometry": { "type": "Point", "coordinates": [ 6.811447270931202, 51.539127882013368 ] } },
    { "type": "Feature", "properties": { "Id": "0", "Schulnumme": "100032", "Schulform": "Grundschule", "Name": "GGS Regenbogenschule", "Kurzname": "Brühl, GG (Verb.) Regenbogenschule", "Adresse": "Kaiserstr. 158", "Postleitza": "50321", "Ort": "Brühl", "Schueler": "235", "Rufnummer": "02232503030", "Email": "100032@schule.nrw.de" }, "geometry": { "type": "Point", "coordinates": [ 6.890493465277283, 50.836528252524516 ] } },
    { "type": "Feature", "properties": { "Id": "0", "Schulnumme": "100033", "Schulform": "Realschule", "Name": "Bischöfliche Clara-Fey-Schule,Realschule", "Kurzname": "Schleiden, RS Clara-Fey-Schule", "Adresse": "Malmedyer Str. 2", "Postleitza": "53937", "Ort": "Schleiden", "Schueler": "293", "Rufnummer": "024457012", "Email": "100033@schule.nrw.de" }, "geometry": { "type": "Point", "coordinates": [ 6.482215201750368, 50.531289079741413 ] } },
    { "type": "Feature", "properties": { "Id": "0", "Schulnumme": "100034", "Schulform": "Gesamtschule", "Name": "Das Forscherhaus Gesamtschule", "Kurzname": "Bünde, GE Das Forscherhaus", "Adresse": "Heidestr. 41", "Postleitza": "32257", "Ort": "Bünde", "Schueler": "203", "Rufnummer": "052234870024", "Email": "100034@schule.nrw.de" }, "geometry": { "type": "Point", "coordinates": [ 8.592064670014993, 52.190329722344664 ] } },
    { "type": "Feature", "properties": { "Id": "0", "Schulnumme": "100035", "Schulform": "Berufskolleg", "Name": "August-Hermann-Francke-Berufskolleg", "Kurzname": "Detmold, BK August-Hermann-Francke", "Adresse": "Georgstr. 24", "Postleitza": "32756", "Ort": "Detmold", "Schueler": "130", "Rufnummer": "05231921680", "Email": "100035@schule.nrw.de" }, "geometry": { "type": "Point", "coordinates": [ 8.87752997362146, 51.949980419671952 ] } },
    { "type": "Feature", "properties": { "Id": "0", "Schulnumme": "100036", "Schulform": "Gesamtschule", "Name": "Gesamtschule Helios", "Kurzname": "Köln, GE Gesamtschule Helios", "Adresse": "Overbeckstr. 71-73", "Postleitza": "50823", "Ort": "Köln", "Schueler": "429", "Rufnummer": "022135589980", "Email": "100036@schule.nrw.de" }, "geometry": { "type": "Point", "coordinates": [ 6.927794603745337, 50.955610009137622 ] } },
    { "type": "Feature", "properties": { "Id": "0", "Schulnumme": "100037", "Schulform": "Berufskolleg", "Name": "Matthias-Claudius-Schule Bochum", "Kurzname": "Bochum, BK Matthias-Claudius-Schule", "Adresse": "Weitmarer Str. 115b", "Postleitza": "44795", "Ort": "Bochum", "Schueler": "26", "Rufnummer": "0234943650", "Email": "100037@schule.nrw.de" }, "geometry": { "type": "Point", "coordinates": [ 7.189163033534445, 51.455451318920979 ] } },
    { "type": "Feature", "properties": { "Id": "0", "Schulnumme": "100038", "Schulform": "Grundschule", "Name": "Grundschule Wefelshohl", "Kurzname": "Lüdenscheid, GG Wefelshohl", "Adresse": "Gustavstr. 35", "Postleitza": "58511", "Ort": "Lüdenscheid", "Schueler": "190", "Rufnummer": "023519475190", "Email": "100038@schule.nrw.de" }, "geometry": { "type": "Point", "coordinates": [ 7.654938462055727, 51.212403179289105 ] } },
    { "type": "Feature", "properties": { "Id": "0", "Schulnumme": "100039", "Schulform": "Grundschule", "Name": "Grundschule St. Albert als private", "Kurzname": "Ruppichteroth, WG St. Albert", "Adresse": "Zum Brölbach 2", "Postleitza": "53809", "Ort": "Ruppichteroth", "Schueler": "39", "Rufnummer": "022959089890", "Email": "100039@schule.nrw.de" }, "geometry": { "type": "Point", "coordinates": [ 7.412774399434714, 50.837788408333601 ] } },
    { "type": "Feature", "properties": { "Id": "0", "Schulnumme": "100040", "Schulform": "Gymnasium", "Name": "Gymnasium Neue Sandkaul", "Kurzname": "Köln, Gym Neue Sandkaul", "Adresse": "Neue Sandkaul 29", "Postleitza": "50859", "Ort": "Köln", "Schueler": "356", "Rufnummer": "022122135320", "Email": "100040@schule.nrw.de" }, "geometry": { "type": "Point", "coordinates": [ 6.838748590677399, 50.962791537672508 ] } },
    { "type": "Feature", "properties": { "Id": "0", "Schulnumme": "100041", "Schulform": "Gesamtschule", "Name": "Gesamtschule Wasseramselweg", "Kurzname": "Köln, GE Wasseramselweg", "Adresse": "Am Wassermann 40", "Postleitza": "50829", "Ort": "Köln", "Schueler": "643", "Rufnummer": "022122135380", "Email": "100041@schule.nrw.de" }, "geometry": { "type": "Point", "coordinates": [ 6.876792980328033, 50.949576124743942 ] } },
    { "type": "Feature", "properties": { "Id": "0", "Schulnumme": "100042", "Schulform": "Gesamtschule", "Name": "Gesamtschule der Stadt Geldern", "Kurzname": "Geldern, GE Königsberger Straße", "Adresse": "Königsberger Str. 60", "Postleitza": "47608", "Ort": "Geldern", "Schueler": "582", "Rufnummer": "0283197796311", "Email": "100042@schule.nrw.de" }, "geometry": { "type": "Point", "coordinates": [ 6.329862408318832, 51.526983162921546 ] } },
    { "type": "Feature", "properties": { "Id": "0", "Schulnumme": "100044", "Schulform": "Gesamtschule", "Name": "Gesamtschule an der Ahornallee", "Kurzname": "Gütersloh, GE 3. Gesamtschule", "Adresse": "Ahornallee 46", "Postleitza": "33330", "Ort": "Gütersloh", "Schueler": "428", "Rufnummer": "0524150528210", "Email": "100044@schule.nrw.de" }, "geometry": { "type": "Point", "coordinates": [ 8.391838578822087, 51.927326255346415 ] } },
    { "type": "Feature", "properties": { "Id": "0", "Schulnumme": "100045", "Schulform": "Realschule", "Name": "Realschule am Schlehenweg", "Kurzname": "Bielefeld, RS am Schlehenweg", "Adresse": "Schlehenweg 24", "Postleitza": "33609", "Ort": "Bielefeld", "Schueler": "217", "Rufnummer": "0521518480", "Email": "100045@schule.nrw.de" }, "geometry": { "type": "Point", "coordinates": [ 8.590728720320307, 52.047325906767433 ] } },
    { "type": "Feature", "properties": { "Id": "0", "Schulnumme": "100046", "Schulform": "Gemeinschaftsschule (Schulversuch)", "Name": "Sekundarschule Königsbrügge", "Kurzname": "Bielefeld, SK Königsbrügge", "Adresse": "Fritz-Reuter-Str. 30", "Postleitza": "33604", "Ort": "Bielefeld", "Schueler": "292", "Rufnummer": "0521515970", "Email": "100046@schule.nrw.de" }, "geometry": { "type": "Point", "coordinates": [ 8.554623860921128, 52.012094204893906 ] } },
    { "type": "Feature", "properties": { "Id": "0", "Schulnumme": "100047", "Schulform": "Gemeinschaftsschule (Schulversuch)", "Name": "Sekundarschule Gellershagen", "Kurzname": "Bielefeld, SK Gellershagen", "Adresse": "Am Brodhagen 50", "Postleitza": "33613", "Ort": "Bielefeld", "Schueler": "326", "Rufnummer": "0521515723", "Email": "100047@schule.nrw.de" }, "geometry": { "type": "Point", "coordinates": [ 8.515661621251471, 52.041826532298373 ] } },
    { "type": "Feature", "properties": { "Id": "0", "Schulnumme": "100048", "Schulform": "Gesamtschule", "Name": "Gesamtschule Bochum-Mitte", "Kurzname": "Bochum, GE Bochum-Mitte", "Adresse": "Feldsieper Str. 94", "Postleitza": "44809", "Ort": "Bochum", "Schueler": "664", "Rufnummer": "02349505313", "Email": "100048@schule.nrw.de" }, "geometry": { "type": "Point", "coordinates": [ 7.207178106004497, 51.494540945714654 ] } },
    { "type": "Feature", "properties": { "Id": "0", "Schulnumme": "100049", "Schulform": "Grundschule", "Name": "dreieins-Grundschule als priv.Ersatzsch.", "Kurzname": "Aachen, GG dreieins-Grundschule .Priv.Er", "Adresse": "Hander Weg 95", "Postleitza": "52072", "Ort": "Aachen", "Schueler": "53", "Rufnummer": "024199031900", "Email": "100049@schule.nrw.de" }, "geometry": { "type": "Point", "coordinates": [ 6.053113287280959, 50.804107150939537 ] } },
    { "type": "Feature", "properties": { "Id": "0", "Schulnumme": "100051", "Schulform": "Gesamtschule", "Name": "Arnold-Freymuth-Gesamtschule", "Kurzname": "Hamm, GE Arnold-Freymuth-Gesamtschule", "Adresse": "An der Falkschule 9", "Postleitza": "59077", "Ort": "Hamm", "Schueler": "595", "Rufnummer": "023818769710", "Email": "100051@schule.nrw.de" }, "geometry": { "type": "Point", "coordinates": [ 7.74488399056683, 51.659501796112863 ] } },
    { "type": "Feature", "properties": { "Id": "0", "Schulnumme": "100052", "Schulform": "Gesamtschule", "Name": "Comenius-Gesamtschule", "Kurzname": "Neuss, GE Comenius-Gesamtschule", "Adresse": "Weberstr. 90a", "Postleitza": "41464", "Ort": "Neuss", "Schueler": "949", "Rufnummer": "02131907680", "Email": "100052@schule.nrw.de" }, "geometry": { "type": "Point", "coordinates": [ 6.691937823311223, 51.182589939316721 ] } },
    { "type": "Feature", "properties": { "Id": "0", "Schulnumme": "100053", "Schulform": "Gemeinschaftsschule (Schulversuch)", "Name": "Neue Sekundarschule Dorsten", "Kurzname": "Dorsten, SK Juliusstraße", "Adresse": "Juliusstr. 1", "Postleitza": "46284", "Ort": "Dorsten", "Schueler": "504", "Rufnummer": "0236228435100", "Email": "100053@schule.nrw.de" }, "geometry": { "type": "Point", "coordinates": [ 6.957286890062893, 51.675878160171024 ] } },
    { "type": "Feature", "properties": { "Id": "0", "Schulnumme": "100054", "Schulform": "Grundschule", "Name": "Offene Gemeinschaftsgrundschule", "Kurzname": "Wuppertal, GG Matthäusstraße", "Adresse": "Rathenaustr. 22", "Postleitza": "42277", "Ort": "Wuppertal", "Schueler": "168", "Rufnummer": "02025632080", "Email": "100054@schule.nrw.de" }, "geometry": { "type": "Point", "coordinates": [ 7.21449152017653, 51.278320177218589 ] } },
    { "type": "Feature", "properties": { "Id": "0", "Schulnumme": "100057", "Schulform": "Förderschule", "Name": "Klinikschule Gütersloh", "Kurzname": "Gütersloh, KR Klinikschule im Füchtei", "Adresse": "Im Füchtei 148", "Postleitza": "33334", "Ort": "Gütersloh", "Schueler": "20", "Rufnummer": "052415246709", "Email": "100057@schule.nrw.de" }, "geometry": { "type": "Point", "coordinates": [ 8.346189579731709, 51.897149757346661 ] } },
    { "type": "Feature", "properties": { "Id": "0", "Schulnumme": "100058", "Schulform": "Weiterbildungskolleg", "Name": "Weiterbildungskolleg Münster", "Kurzname": "Münster, WBK RS, Gym Uppenkampstiege", "Adresse": "Uppenkampstiege 21", "Postleitza": "48147", "Ort": "Münster", "Schueler": "578", "Rufnummer": "02512892790", "Email": "100058@schule.nrw.de" }, "geometry": { "type": "Point", "coordinates": [ 7.626678345817582, 51.976247505083556 ] } },
    { "type": "Feature", "properties": { "Id": "0", "Schulnumme": "100059", "Schulform": "Grundschule", "Name": "FASAN Freie Aktive Schule a. Niederrhein", "Kurzname": "Mönchengladbach, GG FASAN Freie Aktive", "Adresse": "Alsstr. 70-72", "Postleitza": "41063", "Ort": "Mönchengladbach", "Schueler": "53", "Rufnummer": "021619043164", "Email": "100059@schule.nrw.de" }, "geometry": { "type": "Point", "coordinates": [ 6.452577096074355, 51.203766131598293 ] } },
    { "type": "Feature", "properties": { "Id": "0", "Schulnumme": "100060", "Schulform": "Berufskolleg", "Name": "Textilakademie NRW Berufskolleg Sek. II", "Kurzname": "Mönchengladbach, BK Textilakademie NRW", "Adresse": "Rheydter Str. 329", "Postleitza": "41065", "Ort": "Mönchengladbach", "Schueler": "216", "Rufnummer": "0216124750", "Email": "100060@schule.nrw.de" }, "geometry": { "type": "Point", "coordinates": [ 6.440757364253293, 51.178090667303969 ] } },
    { "type": "Feature", "properties": { "Id": "0", "Schulnumme": "100061", "Schulform": "Grundschule", "Name": "Städtische Gemeinschaftsgrundschule", "Kurzname": "Düsseldorf, GG Steinkaul", "Adresse": "Steinkaul 27", "Postleitza": "40589", "Ort": "Düsseldorf", "Schueler": "219", "Rufnummer": "02118925660", "Email": "100061@schule.nrw.de" }, "geometry": { "type": "Point", "coordinates": [ 6.806446544339555, 51.169891434077329 ] } },
    { "type": "Feature", "properties": { "Id": "0", "Schulnumme": "100062", "Schulform": "Förderschule", "Name": "Klinikschule Paderborn", "Kurzname": "Paderborn, KR Klinikschule LWL", "Adresse": "Am Ostfriedhof 10", "Postleitza": "33098", "Ort": "Paderborn", "Schueler": "41", "Rufnummer": "05251682213600", "Email": "100062@schule.nrw.de" }, "geometry": { "type": "Point", "coordinates": [ 8.765217247100926, 51.71809701083113 ] } },
    { "type": "Feature", "properties": { "Id": "0", "Schulnumme": "100063", "Schulform": "Gesamtschule", "Name": "Ida-Noddack-Gesamtschule", "Kurzname": "Wesel, GE Ida Noddack", "Adresse": "Martinistr. 12", "Postleitza": "46483", "Ort": "Wesel", "Schueler": "330", "Rufnummer": "028116497940", "Email": "100063@schule.nrw.de" }, "geometry": { "type": "Point", "coordinates": [ 6.612486446557457, 51.659983917962052 ] } },
    { "type": "Feature", "properties": { "Id": "0", "Schulnumme": "100064", "Schulform": "Grundschule", "Name": "Gemeinschaftsgrundschule Am Apfelgarten", "Kurzname": "Bonn, GG Am Apfelgarten", "Adresse": "Peter-Klein-Str. 4", "Postleitza": "53117", "Ort": "Bonn", "Schueler": "184", "Rufnummer": "02287789112", "Email": "100064@schule.nrw.de" }, "geometry": { "type": "Point", "coordinates": [ 7.057796204826536, 50.755314317654168 ] } },
    { "type": "Feature", "properties": { "Id": "0", "Schulnumme": "100065", "Schulform": "Grundschule", "Name": "Städtische Grundschule", "Kurzname": "Münster, GG Wolbeck - Nord", "Adresse": "Grenkuhlenweg 21", "Postleitza": "48167", "Ort": "Münster", "Schueler": "156", "Rufnummer": "02506303830", "Email": "100065@schule.nrw.de" }, "geometry": { "type": "Point", "coordinates": [ 7.72897373639697, 51.925865463717109 ] } },
    { "type": "Feature", "properties": { "Id": "0", "Schulnumme": "100066", "Schulform": "Hauptschule", "Name": "Glückauf-Schule", "Kurzname": "Essen, GH Glückauf-Schule", "Adresse": "Bischoffstr. 120", "Postleitza": "45329", "Ort": "Essen", "Schueler": "272", "Rufnummer": "0201345175", "Email": "100066@schule.nrw.de" }, "geometry": { "type": "Point", "coordinates": [ 7.01951244670972, 51.502303776180788 ] } },
    { "type": "Feature", "properties": { "Id": "0", "Schulnumme": "100067", "Schulform": "Grundschule", "Name": "Städtische Katholische Grundschule", "Kurzname": "Düsseldorf, KG Niederkassel", "Adresse": "Niederkasseler Str. 36", "Postleitza": "40547", "Ort": "Düsseldorf", "Schueler": "309", "Rufnummer": "02118924500", "Email": "100067@schule.nrw.de" }, "geometry": { "type": "Point", "coordinates": [ 6.753852475830008, 51.237388749299235 ] } },
    { "type": "Feature", "properties": { "Id": "0", "Schulnumme": "100068", "Schulform": "Gesamtschule", "Name": "Gesamtschule Berrenrather Straße", "Kurzname": "Köln, GE Berrenrather Straße", "Adresse": "Berrenrather Str. 488", "Postleitza": "50937", "Ort": "Köln", "Schueler": "317", "Rufnummer": "022128550626", "Email": "100068@schule.nrw.de" }, "geometry": { "type": "Point", "coordinates": [ 6.913235280565652, 50.907431566868411 ] } },
    { "type": "Feature", "properties": { "Id": "0", "Schulnumme": "100069", "Schulform": "Gesamtschule", "Name": "Gesamtschule am Berliner Ring", "Kurzname": "Monheim am Rhein, GE Berliner Ring", "Adresse": "Berliner Ring 5", "Postleitza": "40789", "Ort": "Monheim am Rhein", "Schueler": "414", "Rufnummer": "021739514850", "Email": "100069@schule.nrw.de" }, "geometry": { "type": "Point", "coordinates": [ 6.887391609781187, 51.084944373094615 ] } },
    { "type": "Feature", "properties": { "Id": "0", "Schulnumme": "100070", "Schulform": "Gesamtschule", "Name": "Gesamtschule Velbert-Neviges", "Kurzname": "Velbert, GE Velbert-Neviges", "Adresse": "An der Maikammer 46-54", "Postleitza": "42553", "Ort": "Velbert", "Schueler": "346", "Rufnummer": "0205349690", "Email": "100070@schule.nrw.de" }, "geometry": { "type": "Point", "coordinates": [ 7.075005669600535, 51.309141130731312 ] } },
    { "type": "Feature", "properties": { "Id": "0", "Schulnumme": "100071", "Schulform": "Gesamtschule", "Name": "Gesamtschule Dellbrücker Mauspfad", "Kurzname": "Köln, GE Dellbrücker Mauspfad", "Adresse": "Dellbrücker Mauspfad 198-200", "Postleitza": "51069", "Ort": "Köln", "Schueler": "724", "Rufnummer": "0221938500448", "Email": "100071@schule.nrw.de" }, "geometry": { "type": "Point", "coordinates": [ 7.068348777714914, 50.970098441867009 ] } },
    { "type": "Feature", "properties": { "Id": "0", "Schulnumme": "100073", "Schulform": "Grundschule", "Name": "Kath. Grundschule St. Michael, Staatl.", "Kurzname": "Paderborn, KG St. Michael", "Adresse": "Am Abdinghof 6", "Postleitza": "33098", "Ort": "Paderborn", "Schueler": "111", "Rufnummer": "052516939125", "Email": "100073@schule.nrw.de" }, "geometry": { "type": "Point", "coordinates": [ 8.753805556995522, 51.718972797741479 ] } },
    { "type": "Feature", "properties": { "Id": "0", "Schulnumme": "100074", "Schulform": "Förderschule", "Name": "Hundertwasser-Schule", "Kurzname": "Altena, FÖ SQ, LE Hundertwasser-Schule", "Adresse": "Nüggelnstück 3", "Postleitza": "58762", "Ort": "Altena", "Schueler": "269", "Rufnummer": "023519664450", "Email": "100074@schule.nrw.de" }, "geometry": { "type": "Point", "coordinates": [ 7.662089301904641, 51.259094134283664 ] } },
    { "type": "Feature", "properties": { "Id": "0", "Schulnumme": "100075", "Schulform": "Förderschule", "Name": "Schulischer Lernort Regenbogenschulhaus", "Kurzname": "Ahlen, FÖ SL Regenbogenschulhaus", "Adresse": "Im Pattenmeicheln 14", "Postleitza": "59229", "Ort": "Ahlen", "Schueler": "0", "Rufnummer": "0238296899411", "Email": "100075@schule.nrw.de" }, "geometry": { "type": "Point", "coordinates": [ 7.891163895938756, 51.753787386808511 ] } },
    { "type": "Feature", "properties": { "Id": "0", "Schulnumme": "100076", "Schulform": "Grundschule", "Name": "Grundschule St. Walburga Neuenheerse", "Kurzname": "Bad Driburg, GG St. Walburga Neuenheerse", "Adresse": "Taildor 8", "Postleitza": "33014", "Ort": "Bad Driburg", "Schueler": "69", "Rufnummer": "05259542", "Email": "100076@schule.nrw.de" }, "geometry": { "type": "Point", "coordinates": [ 8.999262452692877, 51.673994830281089 ] } },
    { "type": "Feature", "properties": { "Id": "0", "Schulnumme": "100077", "Schulform": "Gesamtschule", "Name": "Gesamtschule Hiesfeld", "Kurzname": "Dinslaken, GE Hiesfeld", "Adresse": "Kirchstr. 65", "Postleitza": "46539", "Ort": "Dinslaken", "Schueler": "255", "Rufnummer": "02064828410", "Email": "100077@schule.nrw.de" }, "geometry": { "type": "Point", "coordinates": [ 6.77061262886473, 51.564654831164248 ] } },
    { "type": "Feature", "properties": { "Id": "0", "Schulnumme": "100078", "Schulform": "Grundschule", "Name": "LOGOS-Grundschule", "Kurzname": "Köln, GG LOGOS", "Adresse": "Arnsberger Str. 11", "Postleitza": "51065", "Ort": "Köln", "Schueler": "55", "Rufnummer": "022116908487", "Email": "100078@schule.nrw.de" }, "geometry": { "type": "Point", "coordinates": [ 7.014667737976997, 50.954313546649793 ] } },
    { "type": "Feature", "properties": { "Id": "0", "Schulnumme": "100079", "Schulform": "Grundschule", "Name": "Paulus Schule", "Kurzname": "Düsseldorf, KG Paulus Schule", "Adresse": "Paulusplatz 1", "Postleitza": "40237", "Ort": "Düsseldorf", "Schueler": "332", "Rufnummer": "0211667608", "Email": "100079@schule.nrw.de" }, "geometry": { "type": "Point", "coordinates": [ 6.804452294725004, 51.235929991819376 ] } },
    { "type": "Feature", "properties": { "Id": "0", "Schulnumme": "100081", "Schulform": "Förderschule", "Name": "Schule am Niederrhein", "Kurzname": "Kamp-Lintfort, FÖ LE,ES Sch.a.Niederrhei", "Adresse": "Friedrich-Heinrich-Allee 24", "Postleitza": "47475", "Ort": "Kamp-Lintfort", "Schueler": "174", "Rufnummer": "0284250340", "Email": "100081@schule.nrw.de" }, "geometry": { "type": "Point", "coordinates": [ 6.54441574351039, 51.500303387305628 ] } },
    { "type": "Feature", "properties": { "Id": "0", "Schulnumme": "100082", "Schulform": "Realschule", "Name": "Private Realschule Altenbeken", "Kurzname": "Altenbeken, RS Altenbeken", "Adresse": "Gardeweg 7", "Postleitza": "33184", "Ort": "Altenbeken", "Schueler": "133", "Rufnummer": "05255930978", "Email": "100082@schule.nrw.de" }, "geometry": { "type": "Point", "coordinates": [ 8.942362382977684, 51.759758598838381 ] } },
    { "type": "Feature", "properties": { "Id": "0", "Schulnumme": "100083", "Schulform": "Grundschule", "Name": "Felix-Manz-Schule", "Kurzname": "Bergkamen, EG Felix-Manz-Schule", "Adresse": "Kleiweg 10", "Postleitza": "59192", "Ort": "Bergkamen", "Schueler": "74", "Rufnummer": "023072018630", "Email": "100083@schule.nrw.de" }, "geometry": { "type": "Point", "coordinates": [ 7.614717155706574, 51.611657077245141 ] } },
    { "type": "Feature", "properties": { "Id": "0", "Schulnumme": "100084", "Schulform": "Grundschule", "Name": "Grundschule Zukunftsschule Lippstadt", "Kurzname": "Lippstadt, GG Zukunftsschule", "Adresse": "Im Eichholz 12-14", "Postleitza": "59556", "Ort": "Lippstadt", "Schueler": "73", "Rufnummer": "0294192347016", "Email": "100084@schule.nrw.de" }, "geometry": { "type": "Point", "coordinates": [ 8.32867252436545, 51.71191813736295 ] } },
    { "type": "Feature", "properties": { "Id": "0", "Schulnumme": "100085", "Schulform": "Gesamtschule", "Name": "Green-Gesamtschule", "Kurzname": "Duisburg, GE Green-Gesamtschule", "Adresse": "Körnerplatz 2", "Postleitza": "47226", "Ort": "Duisburg", "Schueler": "1059", "Rufnummer": "020659057811", "Email": "100085@schule.nrw.de" }, "geometry": { "type": "Point", "coordinates": [ 6.710019399987755, 51.403765469948915 ] } },
    { "type": "Feature", "properties": { "Id": "0", "Schulnumme": "100086", "Schulform": "Gesamtschule", "Name": "Private Ökumenische Montessori-", "Kurzname": "Hagen, GE Priv. Ökumenische Montessori", "Adresse": "Am Höing 12", "Postleitza": "58097", "Ort": "Hagen", "Schueler": "34", "Rufnummer": "023313400070", "Email": "100086@schule.nrw.de" }, "geometry": { "type": "Point", "coordinates": [ 7.479240164662324, 51.367147823437442 ] } },
    { "type": "Feature", "properties": { "Id": "0", "Schulnumme": "100087", "Schulform": "Waldorfschule", "Name": "Freie Waldorfschule Niederrhein-Aue", "Kurzname": "Uedem, FW Niederrhein-Aue", "Adresse": "Meursfeldstr. 8", "Postleitza": "47589", "Ort": "Uedem", "Schueler": "95", "Rufnummer": "028253079471", "Email": "100087@schule.nrw.de" }, "geometry": { "type": "Point", "coordinates": [ 6.273462810431023, 51.664245111785313 ] } },
    { "type": "Feature", "properties": { "Id": "0", "Schulnumme": "100088", "Schulform": "Grundschule", "Name": "Städt. Gem. Grundschule Kastanienallee", "Kurzname": "Velbert, GG Kastanienallee", "Adresse": "Kastanienallee 23", "Postleitza": "42549", "Ort": "Velbert", "Schueler": "538", "Rufnummer": "0205121705", "Email": "100088@schule.nrw.de" }, "geometry": { "type": "Point", "coordinates": [ 7.047033840594965, 51.333957587727006 ] } },
    { "type": "Feature", "properties": { "Id": "0", "Schulnumme": "100089", "Schulform": "Gesamtschule", "Name": "Heinrich-Böll-Gesamtschule", "Kurzname": "Bornheim, GE Bornheim 2", "Adresse": "Beethovenstr. 57", "Postleitza": "53332", "Ort": "Bornheim", "Schueler": "618", "Rufnummer": "0222791490", "Email": "100089@schule.nrw.de" }, "geometry": { "type": "Point", "coordinates": [ 6.923266849791341, 50.775255712945075 ] } },
    { "type": "Feature", "properties": { "Id": "0", "Schulnumme": "100090", "Schulform": "Realschule", "Name": "Realschule Kettwig", "Kurzname": "Essen, RS Kettwig", "Adresse": "Brederbachstr. 19", "Postleitza": "45219", "Ort": "Essen", "Schueler": "449", "Rufnummer": "02054940430", "Email": "100090@schule.nrw.de" }, "geometry": { "type": "Point", "coordinates": [ 6.938718780175663, 51.367462336612803 ] } },
    { "type": "Feature", "properties": { "Id": "0", "Schulnumme": "100091", "Schulform": "Grundschule", "Name": "Ida Gerhardi Schule", "Kurzname": "Lüdenscheid, GG Ida Gerhardi", "Adresse": "Freiherr-vom-Stein-Str. 52", "Postleitza": "58511", "Ort": "Lüdenscheid", "Schueler": "39", "Rufnummer": "023516583070", "Email": "100091@schule.nrw.de" }, "geometry": { "type": "Point", "coordinates": [ 7.627241850564566, 51.209734414283808 ] } },
    { "type": "Feature", "properties": { "Id": "0", "Schulnumme": "100092", "Schulform": "Grundschule", "Name": "Städt. Kath. Grundschule", "Kurzname": "Düsseldorf, KG Rather Kreuzweg", "Adresse": "Rather Kreuzweg 21", "Postleitza": "40472", "Ort": "Düsseldorf", "Schueler": "200", "Rufnummer": "02118992882", "Email": "100092@schule.nrw.de" }, "geometry": { "type": "Point", "coordinates": [ 6.808060382618344, 51.262789386314864 ] } },
    { "type": "Feature", "properties": { "Id": "0", "Schulnumme": "100093", "Schulform": "Grundschule", "Name": "Grundschule Mitte", "Kurzname": "Beckum, GG Grundschule Mitte", "Adresse": "Brinkmannstr. 3", "Postleitza": "59269", "Ort": "Beckum", "Schueler": "338", "Rufnummer": "0252112051", "Email": "100093@schule.nrw.de" }, "geometry": { "type": "Point", "coordinates": [ 8.043356613008781, 51.751087402549729 ] } },
    { "type": "Feature", "properties": { "Id": "0", "Schulnumme": "100094", "Schulform": "Grundschule", "Name": "Bonifatiusschule", "Kurzname": "Dorsten, GG Bonifatiusschule", "Adresse": "Pliesterbecker Str. 76", "Postleitza": "46284", "Ort": "Dorsten", "Schueler": "132", "Rufnummer": "023622843600", "Email": "100094@schule.nrw.de" }, "geometry": { "type": "Point", "coordinates": [ 6.951422741791567, 51.675371322474966 ] } },
    { "type": "Feature", "properties": { "Id": "0", "Schulnumme": "100095", "Schulform": "Förderschule", "Name": "Drachenfelsschule", "Kurzname": "Königswinter,FÖ LE, SQ Drachenfelsschule", "Adresse": "Friedenstr. 22", "Postleitza": "53639", "Ort": "Königswinter", "Schueler": "132", "Rufnummer": "022232929810", "Email": "100095@schule.nrw.de" }, "geometry": { "type": "Point", "coordinates": [ 7.183907434058596, 50.692771339037478 ] } },
    { "type": "Feature", "properties": { "Id": "0", "Schulnumme": "100096", "Schulform": "Gesamtschule", "Name": "Städtische Gesamtschule Rösrath", "Kurzname": "Rösrath, GE Rösrath", "Adresse": "Freiherr-vom-Stein-Str. 25", "Postleitza": "51503", "Ort": "Rösrath", "Schueler": "217", "Rufnummer": "022051236", "Email": "100096@schule.nrw.de" }, "geometry": { "type": "Point", "coordinates": [ 7.177699150457421, 50.903784098185852 ] } },
    { "type": "Feature", "properties": { "Id": "0", "Schulnumme": "100097", "Schulform": "Förderschule", "Name": "Förderschule Atheneé Royal", "Kurzname": "Düren, FÖ ES,LE, SQ Atheneé Royal", "Adresse": "Rudolf-Diesel-Str. 19", "Postleitza": "52351", "Ort": "Düren", "Schueler": "273", "Rufnummer": "024212245400", "Email": "100097@schule.nrw.de" }, "geometry": { "type": "Point", "coordinates": [ 6.511772821887433, 50.777668861577709 ] } },
    { "type": "Feature", "properties": { "Id": "0", "Schulnumme": "100098", "Schulform": "Gesamtschule", "Name": "Therese-Münsterteicher-Gesamtschule", "Kurzname": "Ahlen, GE Sedanstr.", "Adresse": "Sedanstr. 54", "Postleitza": "59227", "Ort": "Ahlen", "Schueler": "790", "Rufnummer": "02382911620", "Email": "100098@schule.nrw.de" }, "geometry": { "type": "Point", "coordinates": [ 7.892081070969067, 51.770772394987901 ] } },
    { "type": "Feature", "properties": { "Id": "0", "Schulnumme": "100099", "Schulform": "Förderschule", "Name": "Förderzentrum Kleve Förderschule", "Kurzname": "Kleve, FÖ SQ, LE, ES Frankenstr.", "Adresse": "Frankenstr. 25", "Postleitza": "47533", "Ort": "Kleve", "Schueler": "168", "Rufnummer": "02821997850", "Email": "100099@schule.nrw.de" }, "geometry": { "type": "Point", "coordinates": [ 6.129563504269327, 51.784607383007717 ] } },
    { "type": "Feature", "properties": { "Id": "0", "Schulnumme": "100101", "Schulform": "Förderschule", "Name": "Schule am Hügel", "Kurzname": "Bonn, FÖ LE, ES Schule am Hügel", "Adresse": "Am Propsthof 102", "Postleitza": "53121", "Ort": "Bonn", "Schueler": "155", "Rufnummer": "02287760980", "Email": "100101@schule.nrw.de" }, "geometry": { "type": "Point", "coordinates": [ 7.066722611186628, 50.733436592314007 ] } },
    { "type": "Feature", "properties": { "Id": "0", "Schulnumme": "100102", "Schulform": "Förderschule", "Name": "Schule am Rheingarten", "Kurzname": "Bonn,FÖ LE, ES, SQ Schule am Rheingarten", "Adresse": "Ringstr. 69-71", "Postleitza": "53225", "Ort": "Bonn", "Schueler": "128", "Rufnummer": "0228776541", "Email": "100102@schule.nrw.de" }, "geometry": { "type": "Point", "coordinates": [ 7.126126789493771, 50.734946305076221 ] } },
    { "type": "Feature", "properties": { "Id": "0", "Schulnumme": "100103", "Schulform": "Gesamtschule", "Name": "Europaschule Rheinberg", "Kurzname": "Rheinberg, GE Europaschule Rheinberg", "Adresse": "Dr.-Aloys-Wittrup-Str. 11", "Postleitza": "47495", "Ort": "Rheinberg", "Schueler": "983", "Rufnummer": "02843970770", "Email": "100103@schule.nrw.de" }, "geometry": { "type": "Point", "coordinates": [ 6.593758333698639, 51.551618078455711 ] } },
    { "type": "Feature", "properties": { "Id": "0", "Schulnumme": "100104", "Schulform": "Gemeinschaftsschule (Schulversuch)", "Name": "Hönnequellschule", "Kurzname": "Neuenrade, SK Hönnequellschule", "Adresse": "Niederheide 3", "Postleitza": "58809", "Ort": "Neuenrade", "Schueler": "380", "Rufnummer": "023925022770", "Email": "100104@schule.nrw.de" }, "geometry": { "type": "Point", "coordinates": [ 7.786604388136395, 51.28143063868518 ] } },
    { "type": "Feature", "properties": { "Id": "0", "Schulnumme": "100105", "Schulform": "Grundschule", "Name": "Erzbischöfliche Grundschule am", "Kurzname": "Köln, KG am Bildungscampus", "Adresse": "Neuerburgstr. 19", "Postleitza": "51103", "Ort": "Köln", "Schueler": "68", "Rufnummer": "022188060208", "Email": "100105@schule.nrw.de" }, "geometry": { "type": "Point", "coordinates": [ 7.005248191096455, 50.936201557351758 ] } },
    { "type": "Feature", "properties": { "Id": "0", "Schulnumme": "100106", "Schulform": "Förderschule", "Name": "Förderschule im Verbund Nord des", "Kurzname": "Wermelskirchen, FÖ LE,ES,SQ Verbund Nord", "Adresse": "Robert-Stolz-Str. 19", "Postleitza": "42929", "Ort": "Wermelskirchen", "Schueler": "143", "Rufnummer": "021968877780", "Email": "100106@schule.nrw.de" }, "geometry": { "type": "Point", "coordinates": [ 7.230787923105257, 51.140658516670861 ] } },
    { "type": "Feature", "properties": { "Id": "0", "Schulnumme": "100107", "Schulform": "Gemeinschaftsschule (Schulversuch)", "Name": "Leonardo-da-Vinci-Schule", "Kurzname": "Morsbach SK Leonardo-da-Vinci", "Adresse": "Hahner Str. 31", "Postleitza": "51597", "Ort": "Morsbach", "Schueler": "371", "Rufnummer": "022949939710", "Email": "100107@schule.nrw.de" }, "geometry": { "type": "Point", "coordinates": [ 7.722729807656799, 50.867529567999583 ] } },
    { "type": "Feature", "properties": { "Id": "0", "Schulnumme": "100108", "Schulform": "Gemeinschaftsschule (Schulversuch)", "Name": "Jacobischule", "Kurzname": "Kalletal, SK Jacobischule", "Adresse": "Weinkamp 14", "Postleitza": "32689", "Ort": "Kalletal", "Schueler": "336", "Rufnummer": "05264647770", "Email": "100108@schule.nrw.de" }, "geometry": { "type": "Point", "coordinates": [ 8.952796882077072, 52.104067052542916 ] } },
    { "type": "Feature", "properties": { "Id": "0", "Schulnumme": "100109", "Schulform": "Grundschule", "Name": "Marienschule", "Kurzname": "Düsseldorf, KG Marienschule", "Adresse": "Rheindorfer Weg 20", "Postleitza": "40591", "Ort": "Düsseldorf", "Schueler": "340", "Rufnummer": "02118924360", "Email": "100109@schule.nrw.de" }, "geometry": { "type": "Point", "coordinates": [ 6.814326343582886, 51.190211669810466 ] } },
    { "type": "Feature", "properties": { "Id": "0", "Schulnumme": "100111", "Schulform": "Gemeinschaftsschule (Schulversuch)", "Name": "Konrad-Zuse-Schule", "Kurzname": "Langenberg, SK Konrad-Zuse", "Adresse": "Bentelerstr. 104", "Postleitza": "33449", "Ort": "Langenberg", "Schueler": "333", "Rufnummer": "052487675", "Email": "100111@schule.nrw.de" }, "geometry": { "type": "Point", "coordinates": [ 8.320064862343751, 51.763731664104675 ] } },
    { "type": "Feature", "properties": { "Id": "0", "Schulnumme": "100112", "Schulform": "Gemeinschaftsschule (Schulversuch)", "Name": "Sekundarschule Ascheberg", "Kurzname": "Ascheberg, SK Bahnhofsweg", "Adresse": "Bahnhofsweg 5", "Postleitza": "59387", "Ort": "Ascheberg", "Schueler": "408", "Rufnummer": "025939299230", "Email": "100112@schule.nrw.de" }, "geometry": { "type": "Point", "coordinates": [ 7.612711118914171, 51.786195663830703 ] } },
    { "type": "Feature", "properties": { "Id": "0", "Schulnumme": "100113", "Schulform": "Grundschule", "Name": "Gemeinschaftsgrundschule Gaedestrasse", "Kurzname": "Köln, GG Gaedestrasse", "Adresse": "Gaedestr. 31", "Postleitza": "50968", "Ort": "Köln", "Schueler": "0", "Rufnummer": null, "Email": "100113@schule.nrw.de" }, "geometry": { "type": "Point", "coordinates": [ 6.961125664458453, 50.898744587583359 ] } },
    { "type": "Feature", "properties": { "Id": "0", "Schulnumme": "100114", "Schulform": "Berufskolleg", "Name": "Kolping-Sozial-Berufskolleg", "Kurzname": "Delbrück,BK Kolping-Sozial-Berufskolleg", "Adresse": "Springpatt 3", "Postleitza": "33129", "Ort": "Delbrück", "Schueler": "61", "Rufnummer": "029449794959", "Email": "100114@schule.nrw.de" }, "geometry": { "type": "Point", "coordinates": [ 8.469938167682926, 51.754045978275421 ] } },
    { "type": "Feature", "properties": { "Id": "0", "Schulnumme": "100115", "Schulform": "Grundschule", "Name": "Cornelia Funke Schule", "Kurzname": "Recklinghausen, GG Cornelia Funke Schule", "Adresse": "Bochumer Str. 22", "Postleitza": "45661", "Ort": "Recklinghausen", "Schueler": "112", "Rufnummer": "023617988", "Email": "100115@schule.nrw.de" }, "geometry": { "type": "Point", "coordinates": [ 7.212472477051207, 51.581571766762195 ] } },
    { "type": "Feature", "properties": { "Id": "0", "Schulnumme": "100116", "Schulform": "Grundschule", "Name": "Galileo-Schule", "Kurzname": "Herne, GG Galileo-Schule", "Adresse": "Schulstr. 57", "Postleitza": "44623", "Ort": "Herne", "Schueler": "55", "Rufnummer": "02323164492", "Email": "100116@schule.nrw.de" }, "geometry": { "type": "Point", "coordinates": [ 7.223008623235095, 51.542362147480688 ] } },
    { "type": "Feature", "properties": { "Id": "0", "Schulnumme": "100117", "Schulform": "Realschule", "Name": "Weitsicht! -Freie Realschule Wachtendonk", "Kurzname": "Wachtendonk, RS Weitsicht! - Fr. Realsch", "Adresse": "Schoelkensdyck 1", "Postleitza": "47669", "Ort": "Wachtendonk", "Schueler": "44", "Rufnummer": "028363469960", "Email": "100117@schule.nrw.de" }, "geometry": { "type": "Point", "coordinates": [ 6.334883719708138, 51.404653730695365 ] } },
    { "type": "Feature", "properties": { "Id": "0", "Schulnumme": "100118", "Schulform": "Förderschule", "Name": "Albert-Schweitzer-Schule", "Kurzname": "Lage, FÖ LE Albert-Schweitzer", "Adresse": "Kampweg 11", "Postleitza": "32791", "Ort": "Lage", "Schueler": "138", "Rufnummer": "052322558", "Email": "100118@schule.nrw.de" }, "geometry": { "type": "Point", "coordinates": [ 8.788381076392309, 52.014661077808334 ] } },
    { "type": "Feature", "properties": { "Id": "0", "Schulnumme": "100119", "Schulform": "Grundschule", "Name": "Gemeinschaftsgrundschule Rahlenberg", "Kurzname": "Herscheid, GG Rahlenberg", "Adresse": "Bergstr. 7", "Postleitza": "58849", "Ort": "Herscheid", "Schueler": "236", "Rufnummer": "023576007010", "Email": "100119@schule.nrw.de" }, "geometry": { "type": "Point", "coordinates": [ 7.74157204263462, 51.181982603474196 ] } },
    { "type": "Feature", "properties": { "Id": "0", "Schulnumme": "100120", "Schulform": "Realschule", "Name": "Private Realschule Sonsbeck", "Kurzname": "Sonsbeck, RS Herrenstraße", "Adresse": "Herrenstr. 70", "Postleitza": "47665", "Ort": "Sonsbeck", "Schueler": "66", "Rufnummer": "0283891330", "Email": "100120@schule.nrw.de" }, "geometry": { "type": "Point", "coordinates": [ 6.374327677628868, 51.607627199725023 ] } },
    { "type": "Feature", "properties": { "Id": "0", "Schulnumme": "100121", "Schulform": "Gymnasium", "Name": "Gymnasium Carolinenschule", "Kurzname": "Bochum, Gym Carolinenschule", "Adresse": "Springorumallee 1", "Postleitza": "44795", "Ort": "Bochum", "Schueler": "107", "Rufnummer": "023438877200", "Email": "100121@schule.nrw.de" }, "geometry": { "type": "Point", "coordinates": [ 7.209616833580043, 51.454722351329288 ] } },
    { "type": "Feature", "properties": { "Id": "0", "Schulnumme": "100122", "Schulform": "Grundschule", "Name": "Hermann Gmeiner Schule", "Kurzname": "Düsseldorf, KG Hermann Gmeiner Schule", "Adresse": "Schillstr. 7", "Postleitza": "40599", "Ort": "Düsseldorf", "Schueler": "161", "Rufnummer": "02118926160", "Email": "100122@schule.nrw.de" }, "geometry": { "type": "Point", "coordinates": [ 6.875142704925084, 51.178282782737433 ] } },
    { "type": "Feature", "properties": { "Id": "0", "Schulnumme": "100123", "Schulform": "Grundschule", "Name": "Freie Schule Eifel", "Kurzname": "Heimbach, GG Freie Schule Eifel", "Adresse": "Karl-H.-Krischer-Platz 1", "Postleitza": "52396", "Ort": "Heimbach", "Schueler": "38", "Rufnummer": "024468098582", "Email": "100123@schule.nrw.de" }, "geometry": { "type": "Point", "coordinates": [ 6.47589669864432, 50.634754673927674 ] } },
    { "type": "Feature", "properties": { "Id": "0", "Schulnumme": "100124", "Schulform": "Grundschule", "Name": "AMSEL Grundschule", "Kurzname": "Gangelt, GG AMSEL Grundschule", "Adresse": "Geilenkirchener Str. 54", "Postleitza": "52538", "Ort": "Gangelt", "Schueler": "23", "Rufnummer": "015773260604", "Email": "100124@schule.nrw.de" }, "geometry": { "type": "Point", "coordinates": [ 6.060028006081692, 51.005609337095379 ] } },
    { "type": "Feature", "properties": { "Id": "0", "Schulnumme": "100125", "Schulform": "Gesamtschule", "Name": "Emmy-Noether-Gesamtschule", "Kurzname": "Neuenkirchen, GE Emmy-Noether", "Adresse": "Friedrich-Bülten-Str. 15", "Postleitza": "48485", "Ort": "Neuenkirchen", "Schueler": "722", "Rufnummer": "059733136", "Email": "100125@schule.nrw.de" }, "geometry": { "type": "Point", "coordinates": [ 7.3729477882869, 52.23959115666819 ] } },
    { "type": "Feature", "properties": { "Id": "0", "Schulnumme": "100126", "Schulform": "Gesamtschule", "Name": "Gesamtschule Ickern", "Kurzname": "Castrop-Rauxel, GE Gesamtsch.Ickern", "Adresse": "Waldenburger Str. 130", "Postleitza": "44581", "Ort": "Castrop-Rauxel", "Schueler": "110", "Rufnummer": "02305972080", "Email": "100126@schule.nrw.de" }, "geometry": { "type": "Point", "coordinates": [ 7.331123620577132, 51.598768267571273 ] } },
    { "type": "Feature", "properties": { "Id": "0", "Schulnumme": "100127", "Schulform": "Grundschule", "Name": "Aachen International School-Vincerola", "Kurzname": "Aachen, GG Aachen International School", "Adresse": "Campus-Boulevard 60", "Postleitza": "52074", "Ort": "Aachen", "Schueler": "14", "Rufnummer": "024199039203", "Email": "100127@schule.nrw.de" }, "geometry": { "type": "Point", "coordinates": [ 6.044461954591601, 50.784647345466865 ] } },
    { "type": "Feature", "properties": { "Id": "0", "Schulnumme": "100128", "Schulform": "Grundschule", "Name": "Grundschule Vulkanstraße", "Kurzname": "Krefeld, GG Vulkanstraße", "Adresse": "Vulkanstr. 264", "Postleitza": "47807", "Ort": "Krefeld", "Schueler": "183", "Rufnummer": "02151311661", "Email": "100128@schule.nrw.de" }, "geometry": { "type": "Point", "coordinates": [ 6.556635249312959, 51.308291738970446 ] } },
    { "type": "Feature", "properties": { "Id": "0", "Schulnumme": "100129", "Schulform": "Gesamtschule", "Name": "Gesamtschule Swisttal", "Kurzname": "Swisttal, GE Swisttal", "Adresse": "Blütenweg 10", "Postleitza": "53913", "Ort": "Swisttal", "Schueler": "472", "Rufnummer": "02254844926", "Email": "100129@schule.nrw.de" }, "geometry": { "type": "Point", "coordinates": [ 6.920574629744397, 50.715370177853039 ] } },
    { "type": "Feature", "properties": { "Id": "0", "Schulnumme": "100130", "Schulform": "Gemeinschaftsschule (Schulversuch)", "Name": "Sekundarschule Am Wiehen", "Kurzname": "Minden, SK Am Wiehen", "Adresse": "Schülerweg 11", "Postleitza": "32429", "Ort": "Minden", "Schueler": "75", "Rufnummer": null, "Email": null }, "geometry": { "type": "Point", "coordinates": [ 8.875011749496348, 52.263702744070699 ] } },
    { "type": "Feature", "properties": { "Id": "0", "Schulnumme": "100131", "Schulform": "Gesamtschule", "Name": "Städt. Gesamtschule Mettmann", "Kurzname": "Mettmann, GE Borner Weg", "Adresse": "Borner Weg 5", "Postleitza": "40822", "Ort": "Mettmann", "Schueler": "148", "Rufnummer": "0210417330", "Email": "100131@schule.nrw.de" }, "geometry": { "type": "Point", "coordinates": [ 6.971866201824982, 51.256452827019565 ] } },
    { "type": "Feature", "properties": { "Id": "0", "Schulnumme": "100132", "Schulform": "Gesamtschule", "Name": "Reinoldi-Gesamtschule", "Kurzname": "Dortmund, GE Reinoldi-Gesamtschule", "Adresse": "Im Odemsloh 107", "Postleitza": "44357", "Ort": "Dortmund", "Schueler": "472", "Rufnummer": "02315012280", "Email": "100132@schule.nrw.de" }, "geometry": { "type": "Point", "coordinates": [ 7.368934867363328, 51.54529123872004 ] } },
    { "type": "Feature", "properties": { "Id": "0", "Schulnumme": "100133", "Schulform": "Berufskolleg", "Name": "Kolping-Berufskolleg Paderborn", "Kurzname": "Paderborn, BK Kolping Berufskolleg", "Adresse": "Otto-Stadler-Str. 9", "Postleitza": "33100", "Ort": "Paderborn", "Schueler": "156", "Rufnummer": "052511809447", "Email": "100133@schule.nrw.de" }, "geometry": { "type": "Point", "coordinates": [ 8.780746382909365, 51.736757176988789 ] } },
    { "type": "Feature", "properties": { "Id": "0", "Schulnumme": "100135", "Schulform": "Grundschule", "Name": "Gemeinschaftsgrundschule an", "Kurzname": "Gelsenkirchen, GG an der Ebersteinstraße", "Adresse": "Ebersteinstr. 2", "Postleitza": "45881", "Ort": "Gelsenkirchen", "Schueler": "0", "Rufnummer": "0209638401000", "Email": "100135@schule.nrw.de" }, "geometry": { "type": "Point", "coordinates": [ 7.100907954971239, 51.524522629811209 ] } },
    { "type": "Feature", "properties": { "Id": "0", "Schulnumme": "100136", "Schulform": "Förderschule", "Name": "Schule Talstraße, Fördersch. im Verbund", "Kurzname": "Stolberg, FÖ LE,ES,SQ Schule Talstraße", "Adresse": "Talstr. 26", "Postleitza": "52223", "Ort": "Stolberg (Rhld.)", "Schueler": "146", "Rufnummer": "0240224852", "Email": "100136@schule.nrw.de" }, "geometry": { "type": "Point", "coordinates": [ 6.213652486821824, 50.76725375686091 ] } },
    { "type": "Feature", "properties": { "Id": "0", "Schulnumme": "100137", "Schulform": "Grundschule", "Name": "Kompass-Grundschule", "Kurzname": "Krefeld, GG Felbelstraße", "Adresse": "Felbelstr. 24-28", "Postleitza": "47799", "Ort": "Krefeld", "Schueler": "0", "Rufnummer": "0215169309", "Email": "100137@schule.nrw.de" }, "geometry": { "type": "Point", "coordinates": [ 6.567995203235427, 51.336319078318503 ] } },
    { "type": "Feature", "properties": { "Id": "0", "Schulnumme": "100138", "Schulform": "Grundschule", "Name": "Freie Christliche Schule Siegen \"An der", "Kurzname": "Siegen, EG \"An der Weiß\"", "Adresse": "Am Lohgraben 38", "Postleitza": "57074", "Ort": "Siegen", "Schueler": "118", "Rufnummer": "02713039930", "Email": "100138@schule.nrw.de" }, "geometry": { "type": "Point", "coordinates": [ 8.030392753106467, 50.871534272064885 ] } },
    { "type": "Feature", "properties": { "Id": "0", "Schulnumme": "100139", "Schulform": "Gesamtschule", "Name": "Eugen Langen Gesamtschule", "Kurzname": "Wuppertal, GE Eugen Lange", "Adresse": "Boltenheide 4", "Postleitza": "42329", "Ort": "Wuppertal", "Schueler": "33", "Rufnummer": "02024292255", "Email": "100139@schule.nrw.de" }, "geometry": { "type": "Point", "coordinates": [ 7.088521308866884, 51.223486792823451 ] } },
    { "type": "Feature", "properties": { "Id": "0", "Schulnumme": "100141", "Schulform": "Grundschule", "Name": "Freie Schule Rhein-Sieg, Staatl. gen.", "Kurzname": "Hennef, GG Freie Schule Rhein-Sieg", "Adresse": "Schulstr. 40", "Postleitza": "53773", "Ort": "Hennef (Sieg)", "Schueler": "0", "Rufnummer": "01703133748", "Email": "100141@schule.nrw.de" }, "geometry": { "type": "Point", "coordinates": [ 7.26219972324775, 50.770339896315249 ] } },
    { "type": "Feature", "properties": { "Id": "0", "Schulnumme": "100142", "Schulform": "Realschule", "Name": "Private Realschule Wettringen", "Kurzname": "Wettringen, RS Private Realschule", "Adresse": "Bültstr. 2", "Postleitza": "48493", "Ort": "Wettringen", "Schueler": "42", "Rufnummer": "025573849310", "Email": "100142@schule.nrw.de" }, "geometry": { "type": "Point", "coordinates": [ 7.325264158826201, 52.208334815832906 ] } },
    { "type": "Feature", "properties": { "Id": "0", "Schulnumme": "100143", "Schulform": "Grundschule", "Name": "Grundschule Bregenzer Straße", "Kurzname": "Monheim, GG Bregenzer Straße", "Adresse": "Grazer Str. 49", "Postleitza": "40789", "Ort": "Monheim am Rhein", "Schueler": "0", "Rufnummer": "021739514550", "Email": "100143@schule.nrw.de" }, "geometry": { "type": "Point", "coordinates": [ 6.905305392707737, 51.119847263620692 ] } },
    { "type": "Feature", "properties": { "Id": "0", "Schulnumme": "100144", "Schulform": "Grundschule", "Name": "Städt. Grundschule Im Pfingsterfeld", "Kurzname": "Monheim, GG Im Pfingsterfeld", "Adresse": "Louise-Bourgeois-Platz 1", "Postleitza": "40789", "Ort": "Monheim am Rhein", "Schueler": "0", "Rufnummer": "021739514270", "Email": "100144@schule.nrw.de" }, "geometry": { "type": "Point", "coordinates": [ 6.897343447337464, 51.080555085097537 ] } },
    { "type": "Feature", "properties": { "Id": "0", "Schulnumme": "100145", "Schulform": "Gymnasium", "Name": "Städt. Gymnasium Zusestraße", "Kurzname": "Köln, Gym Zusestraße", "Adresse": "Zusestr. 47", "Postleitza": "50859", "Ort": "Köln", "Schueler": "0", "Rufnummer": "022134810", "Email": "100145@schule.nrw.de" }, "geometry": { "type": "Point", "coordinates": [ 6.838391916289097, 50.951146848780837 ] } },
    { "type": "Feature", "properties": { "Id": "0", "Schulnumme": "100147", "Schulform": "Gymnasium", "Name": "Städt. Gymnasium Aachener Straße", "Kurzname": "Köln, Gym Aachener Straße", "Adresse": "Aachener Str. 744 - 750", "Postleitza": "50933", "Ort": "Köln", "Schueler": "0", "Rufnummer": "02212136620", "Email": "100147@schule.nrw.de" }, "geometry": { "type": "Point", "coordinates": [ 6.879221254633578, 50.938144107771258 ] } },
    { "type": "Feature", "properties": { "Id": "0", "Schulnumme": "100148", "Schulform": "Grundschule", "Name": "Hermann-Gmeiner-Schule", "Kurzname": "Bergheim, GG Hermann-Gmeiner-Schule", "Adresse": "Grevenbroicher Str. 11", "Postleitza": "50126", "Ort": "Bergheim", "Schueler": "0", "Rufnummer": "02272930296", "Email": "100148@schule.nrw.de" }, "geometry": { "type": "Point", "coordinates": [ 6.594835323127088, 50.970559080690535 ] } },
    { "type": "Feature", "properties": { "Id": "0", "Schulnumme": "100149", "Schulform": "Grundschule", "Name": "Odilia-Weidenfeld-Schule", "Kurzname": "Bergheim, GG Odilia-Weidenfeld", "Adresse": "Nikolaus-Adams-Str. 75", "Postleitza": "50129", "Ort": "Bergheim", "Schueler": "0", "Rufnummer": "021839567", "Email": "100149@schule.nrw.de" }, "geometry": { "type": "Point", "coordinates": [ 6.68578613138741, 51.014120659491702 ] } },
    { "type": "Feature", "properties": { "Id": "0", "Schulnumme": "100150", "Schulform": "Förderschule", "Name": "Elisabethschule Förderschule i. Verb. d.", "Kurzname": "Alsdorf, FÖ ES, LE, SQ Elisabethschule", "Adresse": "Elisabethstr. 24", "Postleitza": "52477", "Ort": "Alsdorf", "Schueler": "0", "Rufnummer": "024048440", "Email": "100150@schule.nrw.de" }, "geometry": { "type": "Point", "coordinates": [ 6.15357752251135, 50.87961586833481 ] } },
    { "type": "Feature", "properties": { "Id": "0", "Schulnumme": "100151", "Schulform": "Förderschule", "Name": "Bernsteinschule Förderschule d. Kr.", "Kurzname": "Halle, FÖ LE, ES Bredenstr.", "Adresse": "Bredenstr. 3", "Postleitza": "33790", "Ort": "Halle (Westf.)", "Schueler": "0", "Rufnummer": "052012229", "Email": "100151@schule.nrw.de" }, "geometry": { "type": "Point", "coordinates": [ 8.370409520573075, 52.051398748098308 ] } },
    { "type": "Feature", "properties": { "Id": "0", "Schulnumme": "100152", "Schulform": "Förderschule", "Name": "Wilhelmine-Bräm-Schule, Staatl.gen.priv.", "Kurzname": "Hamminkeln, FÖ ES, LE Wilhelmine-Bräm", "Adresse": "Wolfsdeich 10", "Postleitza": "46499", "Ort": "Hamminkeln", "Schueler": "0", "Rufnummer": "015153830750", "Email": "100152@schule.nrw.de" }, "geometry": { "type": "Point", "coordinates": [ 6.612445027007106, 51.741299809220791 ] } },
    { "type": "Feature", "properties": { "Id": "0", "Schulnumme": "100153", "Schulform": "Gesamtschule", "Name": "Otto-Schott-Gesamtschule", "Kurzname": "Witten, GE Otto-Schott-Gesamtschule", "Adresse": "Rhienscher Berg 12", "Postleitza": "58452", "Ort": "Witten", "Schueler": "0", "Rufnummer": "023025815780", "Email": "100153@schule.nrw.de" }, "geometry": { "type": "Point", "coordinates": [ 7.348143453870795, 51.436351979681021 ] } },
    { "type": "Feature", "properties": { "Id": "0", "Schulnumme": "100154", "Schulform": "Förderschule", "Name": "Phönix-Schule, Förderschule des", "Kurzname": "Meinerzhagen, FÖ ES,SQ,LE Phönix-Schule", "Adresse": "Königsberger Str. 12", "Postleitza": "58540", "Ort": "Meinerzhagen", "Schueler": "0", "Rufnummer": "023519664550", "Email": "100154@schule.nrw.de" }, "geometry": { "type": "Point", "coordinates": [ 7.643143741454987, 51.100675422237117 ] } },
    { "type": "Feature", "properties": { "Id": "0", "Schulnumme": "100155", "Schulform": "Förderschule", "Name": "Klinikschule", "Kurzname": "Hürth, KR Klinikschule", "Adresse": "Zum Konraderhof 5", "Postleitza": "50354", "Ort": "Hürth", "Schueler": "0", "Rufnummer": "02233460090", "Email": "100155@schule.nrw.de" }, "geometry": { "type": "Point", "coordinates": [ 6.914218082528154, 50.867300426110056 ] } },
    { "type": "Feature", "properties": { "Id": "0", "Schulnumme": "100156", "Schulform": "Gesamtschule", "Name": "Freie Schule Tecklenburger Land", "Kurzname": "Ibbenbüren,GE Freie Schule Tecklenb.Land", "Adresse": "Wilhelmstr. 243", "Postleitza": "49479", "Ort": "Ibbenbüren", "Schueler": "0", "Rufnummer": "054515429150", "Email": "100156@schule.nrw.de" }, "geometry": { "type": "Point", "coordinates": [ 7.742770079237834, 52.269779438837261 ] } },
    { "type": "Feature", "properties": { "Id": "0", "Schulnumme": "100157", "Schulform": "Grundschule", "Name": "Grundschule Westparkstraße", "Kurzname": "Krefeld, GG Westparkstraße", "Adresse": "Westparkstr. 1", "Postleitza": "47803", "Ort": "Krefeld", "Schueler": "0", "Rufnummer": null, "Email": "100157@schule.nrw.de" }, "geometry": { "type": "Point", "coordinates": [ 6.550530751957456, 51.336413663461002 ] } },
    { "type": "Feature", "properties": { "Id": "0", "Schulnumme": "100158", "Schulform": "Grundschule", "Name": "Städtische Katholische Grundschule", "Kurzname": "Düsseldorf, KG Josef-Kleesattel-Str.", "Adresse": "Josef-Kleesattel-Str. 13", "Postleitza": "40595", "Ort": "Düsseldorf", "Schueler": "180", "Rufnummer": "02117393600", "Email": "100158@schule.nrw.de" }, "geometry": { "type": "Point", "coordinates": [ 6.888985305768593, 51.145248354612129 ] } },
    { "type": "Feature", "properties": { "Id": "0", "Schulnumme": "100159", "Schulform": "Grundschule", "Name": "Gem. Grundschule Junkersdorf", "Kurzname": "Köln, GG Junkersdorf", "Adresse": "Alfons-Nowak-Str. 2", "Postleitza": "50858", "Ort": "Köln", "Schueler": "0", "Rufnummer": "022122282030", "Email": "100159@schule.nrw.de" }, "geometry": { "type": "Point", "coordinates": [ 6.859715549776325, 50.930188262174866 ] } },
    { "type": "Feature", "properties": { "Id": "0", "Schulnumme": "100160", "Schulform": "Grundschule", "Name": "Grundschule Kaiserswerth", "Kurzname": "Düsseldorf, GG Kaiserswerth", "Adresse": "Fliednerstr. 32", "Postleitza": "40489", "Ort": "Düsseldorf", "Schueler": "307", "Rufnummer": "02118923641", "Email": "100160@schule.nrw.de" }, "geometry": { "type": "Point", "coordinates": [ 6.738147064548682, 51.302253794259684 ] } },
    { "type": "Feature", "properties": { "Id": "0", "Schulnumme": "100161", "Schulform": "Grundschule", "Name": "Offene Grund-Schule Köln, Staatl.gen.", "Kurzname": "Köln, GG Offene-Grundschule Köln", "Adresse": "Sürther Str. 199", "Postleitza": "50999", "Ort": "Köln", "Schueler": "0", "Rufnummer": "0221337703101", "Email": "100161@schule.nrw.de" }, "geometry": { "type": "Point", "coordinates": [ 7.004914959083009, 50.871800536794574 ] } },
    { "type": "Feature", "properties": { "Id": "0", "Schulnumme": "100162", "Schulform": "Gemeinschaftsschule (Schulversuch)", "Name": "Quinoa-Sekundarschule Herne staatl. gen.", "Kurzname": "Herne, SK Quinoa", "Adresse": "Drögenkamp 10", "Postleitza": "44653", "Ort": "Herne", "Schueler": "0", "Rufnummer": "023234931900", "Email": "100162@schule.nrw.de" }, "geometry": { "type": "Point", "coordinates": [ 7.183311817238484, 51.545477035437209 ] } },
    { "type": "Feature", "properties": { "Id": "0", "Schulnumme": "100163", "Schulform": "Grundschule", "Name": "Grundschule Bleiberquelle", "Kurzname": "Velbert, GG Bleiberquelle", "Adresse": "Bleibergstr. 139", "Postleitza": "42551", "Ort": "Velbert", "Schueler": "0", "Rufnummer": "02051209350", "Email": "100163@schule.nrw.de" }, "geometry": { "type": "Point", "coordinates": [ 7.079773112901958, 51.34031756331202 ] } },
    { "type": "Feature", "properties": { "Id": "0", "Schulnumme": "100164", "Schulform": "Gesamtschule", "Name": "Freie Gesamtschule Weitblick", "Kurzname": "Isselburg, GE Fr. Gesamtschule Weitblick", "Adresse": "Stromberg 2-4", "Postleitza": "46419", "Ort": "Isselburg", "Schueler": "0", "Rufnummer": "028749998060", "Email": "100164@schule.nrw.de" }, "geometry": { "type": "Point", "coordinates": [ 6.455724467147842, 51.838285675545144 ] } },
    { "type": "Feature", "properties": { "Id": "0", "Schulnumme": "100165", "Schulform": "Förderschule", "Name": "Staatl. genehmigtes Förder-Berufskolleg", "Kurzname": "Lippstadt, FÖ BK INI", "Adresse": "Südstr. 18", "Postleitza": "59557", "Ort": "Lippstadt", "Schueler": "0", "Rufnummer": "02941752140", "Email": "100165@schule.nrw.de" }, "geometry": { "type": "Point", "coordinates": [ 8.349081066950305, 51.661473347364016 ] } },
    { "type": "Feature", "properties": { "Id": "0", "Schulnumme": "100166", "Schulform": "Berufskolleg", "Name": "Freies Evang.Berufskolleg Minden, Sek II", "Kurzname": "Minden, BK Freies Evang. Berufskolleg", "Adresse": "Kingsleyallee 5", "Postleitza": "32425", "Ort": "Minden", "Schueler": "0", "Rufnummer": "057138860104", "Email": "100166@schule.nrw.de" }, "geometry": { "type": "Point", "coordinates": [ 8.881888424585963, 52.311620315931449 ] } },
    { "type": "Feature", "properties": { "Id": "0", "Schulnumme": "100167", "Schulform": "Grundschule", "Name": "Städtische Gemeinschaftsgrundschule", "Kurzname": "Kamp-Lintfort, GG Vinnstraße", "Adresse": "Vinnstraße 40", "Postleitza": "47475", "Ort": "Kamp-Lintfort", "Schueler": "0", "Rufnummer": "028421713", "Email": "100167@schule.nrw.de" }, "geometry": { "type": "Point", "coordinates": [ 6.555167757942479, 51.488683582859231 ] } },
    { "type": "Feature", "properties": { "Id": "0", "Schulnumme": "100168", "Schulform": "Grundschule", "Name": "Freie Naturschulen Köln - Grundschule", "Kurzname": "Köln, GG Freie Naturschulen", "Adresse": "An der Wachsfabrik 25", "Postleitza": "50996", "Ort": "Köln", "Schueler": "0", "Rufnummer": "022368846800", "Email": "100168@schule.nrw.de" }, "geometry": { "type": "Point", "coordinates": [ 6.999141376759895, 50.869210387190712 ] } },
    { "type": "Feature", "properties": { "Id": "0", "Schulnumme": "100169", "Schulform": "Gesamtschule", "Name": "Freie Naturschulen Köln - Gesamtschule", "Kurzname": "Köln, GE Freie Naturschulen", "Adresse": "An der Wachsfabrik 25", "Postleitza": "50996", "Ort": "Köln", "Schueler": "0", "Rufnummer": "022368846800", "Email": "100169@schule.nrw.de" }, "geometry": { "type": "Point", "coordinates": [ 6.999141376759895, 50.869210387190712 ] } },
    { "type": "Feature", "properties": { "Id": "0", "Schulnumme": "100170", "Schulform": "Gemeinschaftsschule (Schulversuch)", "Name": "BAO-Bildungs-Alternative-Oberberg inkl.", "Kurzname": "Windeck,SK Bildungs-Alternative-Oberberg", "Adresse": "Weyerbuscher Str. 43a", "Postleitza": "51570", "Ort": "Windeck", "Schueler": "0", "Rufnummer": "01718623079", "Email": "100170@schule.nrw.de" }, "geometry": { "type": "Point", "coordinates": [ 7.561528931464147, 50.760764394489705 ] } },
    { "type": "Feature", "properties": { "Id": "0", "Schulnumme": "100171", "Schulform": "Grundschule", "Name": "Städt. Kath. Grundschule", "Kurzname": "Düsseldorf, KG Unter den Eichen", "Adresse": "Unter den Eichen 26", "Postleitza": "40625", "Ort": "Düsseldorf", "Schueler": "378", "Rufnummer": "02118928292", "Email": "100171@schule.nrw.de" }, "geometry": { "type": "Point", "coordinates": [ 6.85753772324949, 51.232696201836028 ] } },
    { "type": "Feature", "properties": { "Id": "0", "Schulnumme": "100172", "Schulform": "Gesamtschule", "Name": "Gesamtschule III", "Kurzname": "Grevenbroich, GE Gesamtschule III", "Adresse": "Bergheimer Str. 49/51", "Postleitza": "41515", "Ort": "Grevenbroich", "Schueler": "0", "Rufnummer": "02181608258", "Email": "100172@schule.nrw.de" }, "geometry": { "type": "Point", "coordinates": [ 6.579448603875577, 51.087461535434933 ] } },
    { "type": "Feature", "properties": { "Id": "0", "Schulnumme": "100173", "Schulform": "Gesamtschule", "Name": "Gesamtschule Wermelskirchen", "Kurzname": "Wermelskirchen, GE Wirtsmühler Str.", "Adresse": "Weyersbusch 9", "Postleitza": "42929", "Ort": "Wermelskirchen", "Schueler": "0", "Rufnummer": "0219688716322", "Email": "100173@schule.nrw.de" }, "geometry": { "type": "Point", "coordinates": [ 7.225566337055737, 51.142243134359077 ] } },
    { "type": "Feature", "properties": { "Id": "0", "Schulnumme": "100174", "Schulform": "Gymnasium", "Name": "Gymnasium Alfter", "Kurzname": "Alfter, Gym Alfter", "Adresse": "Am Rathaus 11", "Postleitza": "53347", "Ort": "Alfter", "Schueler": "0", "Rufnummer": null, "Email": "100174@schule.nrw.de" }, "geometry": { "type": "Point", "coordinates": [ 7.024859601916623, 50.720961639043928 ] } },
    { "type": "Feature", "properties": { "Id": "0", "Schulnumme": "100175", "Schulform": "Gesamtschule", "Name": "Gesamtschule Am Rosterberg", "Kurzname": "Siegen, GE Am Rosterberg", "Adresse": "Rosterstr. 143", "Postleitza": "57074", "Ort": "Siegen", "Schueler": "0", "Rufnummer": "027138789361", "Email": "100175@schule.nrw.de" }, "geometry": { "type": "Point", "coordinates": [ 8.018990501458317, 50.861564707265764 ] } },
    { "type": "Feature", "properties": { "Id": "0", "Schulnumme": "100176", "Schulform": "Grundschule", "Name": "Gemeinschaftsgrundschule Oedt", "Kurzname": "Grefrath, GG Oedt", "Adresse": "Am Schwarzen Graben 3", "Postleitza": "47929", "Ort": "Grefrath", "Schueler": "0", "Rufnummer": "021584080801", "Email": "100176@schule.nrw.de" }, "geometry": { "type": "Point", "coordinates": [ 6.376406223223631, 51.324366287553516 ] } },
    { "type": "Feature", "properties": { "Id": "0", "Schulnumme": "100177", "Schulform": "Gesamtschule", "Name": "Gesamtschule im Süden", "Kurzname": "Dortmund, GE im Süden", "Adresse": "Am Lieberfeld 13", "Postleitza": "44265", "Ort": "Dortmund", "Schueler": "0", "Rufnummer": null, "Email": "100177@schule.nrw.de" }, "geometry": { "type": "Point", "coordinates": [ 7.489299306616538, 51.466510740852726 ] } },
    { "type": "Feature", "properties": { "Id": "0", "Schulnumme": "100178", "Schulform": "Grundschule", "Name": "Städtische neue Grundschule", "Kurzname": "Gronau, GG neue Grundsch. i. Stadtwesten", "Adresse": "Grünstiege 64", "Postleitza": "48599", "Ort": "Gronau (Westf.)", "Schueler": "0", "Rufnummer": null, "Email": "100178@schule.nrw.de" }, "geometry": { "type": "Point", "coordinates": [ 7.038390845751031, 52.212321184169987 ] } },
    { "type": "Feature", "properties": { "Id": "0", "Schulnumme": "100179", "Schulform": "Förderschule", "Name": "Förderschule Heinsberg Oberbruch d.", "Kurzname": "Heinsberg, FÖ LE,SQ,ES Heinsberg", "Adresse": "Parkstr. 20", "Postleitza": "52525", "Ort": "Heinsberg", "Schueler": "0", "Rufnummer": null, "Email": "100179@schule.nrw.de" }, "geometry": { "type": "Point", "coordinates": [ 6.148290585808333, 51.058106430614473 ] } },
    { "type": "Feature", "properties": { "Id": "0", "Schulnumme": "100180", "Schulform": "Förderschule", "Name": "Städtische Förderschule Berliner Str. 36", "Kurzname": "Köln, FÖ LE Berliner Str. 36", "Adresse": "Berliner Str. 36", "Postleitza": "51149", "Ort": "Köln", "Schueler": "0", "Rufnummer": null, "Email": "100180@schule.nrw.de" }, "geometry": { "type": "Point", "coordinates": [ 7.023028692044393, 50.899881596270355 ] } },
    { "type": "Feature", "properties": { "Id": "0", "Schulnumme": "100181", "Schulform": "Berufskolleg", "Name": "FRÖBEL-Fachschule für Sozialpädagogik", "Kurzname": "Köln, BK FRÖBEL-Fachschule", "Adresse": "Salierring 47 - 53", "Postleitza": "50677", "Ort": "Köln", "Schueler": "0", "Rufnummer": null, "Email": "100181@schule.nrw.de" }, "geometry": { "type": "Point", "coordinates": [ 6.942676675275794, 50.928163367617223 ] } },
    { "type": "Feature", "properties": { "Id": "0", "Schulnumme": "100183", "Schulform": "Grundschule", "Name": "Christophorus-Schule", "Kurzname": "Düsseldorf, KG Christophorus", "Adresse": "Werstener Friedhofstr. 10", "Postleitza": "40591", "Ort": "Düsseldorf", "Schueler": "223", "Rufnummer": "02118926170", "Email": "100183@schule.nrw.de" }, "geometry": { "type": "Point", "coordinates": [ 6.827600193620063, 51.186115079355687 ] } },
    { "type": "Feature", "properties": { "Id": "0", "Schulnumme": "100190", "Schulform": "Realschule", "Name": "Felix-Manz-Schule der Sek.I", "Kurzname": "Bergkamen, RS Felix-Manz-Schule", "Adresse": "Kleiweg 10", "Postleitza": "59192", "Ort": "Bergkamen", "Schueler": "0", "Rufnummer": null, "Email": "100190@schule.nrw.de" }, "geometry": { "type": "Point", "coordinates": [ 7.614717155706574, 51.611657077245141 ] } },
    { "type": "Feature", "properties": { "Id": "0", "Schulnumme": "100213", "Schulform": "Grundschule", "Name": "Henri-Dunant-Schule", "Kurzname": "Düsseldorf, GG Henri-Dunant-Schule", "Adresse": "Rheindorfer Weg 20", "Postleitza": "40591", "Ort": "Düsseldorf", "Schueler": "220", "Rufnummer": "02118924350", "Email": "100213@schule.nrw.de" }, "geometry": { "type": "Point", "coordinates": [ 6.814326343582886, 51.190211669810466 ] } },
    { "type": "Feature", "properties": { "Id": "0", "Schulnumme": "100225", "Schulform": "Grundschule", "Name": "Städt. Gem. Grundschule", "Kurzname": "Düsseldorf, GG Bingener Weg", "Adresse": "Bingener Weg 10", "Postleitza": "40229", "Ort": "Düsseldorf", "Schueler": "212", "Rufnummer": "02118924378", "Email": "100225@schule.nrw.de" }, "geometry": { "type": "Point", "coordinates": [ 6.819661570795233, 51.200887717995542 ] } },
    { "type": "Feature", "properties": { "Id": "0", "Schulnumme": "100237", "Schulform": "Grundschule", "Name": "Städt. Gem. Grundschule", "Kurzname": "Düsseldorf, GG Gumbertstr.", "Adresse": "Gumbertstr. 191", "Postleitza": "40229", "Ort": "Düsseldorf", "Schueler": "180", "Rufnummer": "02119215317", "Email": "100237@schule.nrw.de" }, "geometry": { "type": "Point", "coordinates": [ 6.844084059070087, 51.200261204519492 ] } },
    { "type": "Feature", "properties": { "Id": "0", "Schulnumme": "100250", "Schulform": "Grundschule", "Name": "St. -Peter-Schule", "Kurzname": "Düsseldorf, KG St. -Peter", "Adresse": "Jahnstr. 97", "Postleitza": "40215", "Ort": "Düsseldorf", "Schueler": "181", "Rufnummer": "02118924741", "Email": "100250@schule.nrw.de" }, "geometry": { "type": "Point", "coordinates": [ 6.780539775828907, 51.211861590518104 ] } },
    { "type": "Feature", "properties": { "Id": "0", "Schulnumme": "100262", "Schulform": "Grundschule", "Name": "St. Michael Schule", "Kurzname": "Düsseldorf, KG St. Michael Schule", "Adresse": "Kempgensweg 65", "Postleitza": "40231", "Ort": "Düsseldorf", "Schueler": "187", "Rufnummer": "02118921726", "Email": "100262@schule.nrw.de" }, "geometry": { "type": "Point", "coordinates": [ 6.828353521094196, 51.208136354921443 ] } },
    { "type": "Feature", "properties": { "Id": "0", "Schulnumme": "100274", "Schulform": "Grundschule", "Name": "Franz-Boehm-Schule", "Kurzname": "Düsseldorf, KG Franz-Boehm-Schule", "Adresse": "Kamper Weg 291", "Postleitza": "40627", "Ort": "Düsseldorf", "Schueler": "171", "Rufnummer": "02119262055", "Email": "100274@schule.nrw.de" }, "geometry": { "type": "Point", "coordinates": [ 6.862405230552682, 51.2163810966005 ] } },
    { "type": "Feature", "properties": { "Id": "0", "Schulnumme": "100286", "Schulform": "Grundschule", "Name": "St. Apollinaris Schule", "Kurzname": "Düsseldorf, KG St. Apollinaris Schule", "Adresse": "Itterstr. 16", "Postleitza": "40589", "Ort": "Düsseldorf", "Schueler": "233", "Rufnummer": "02118924726", "Email": "100286@schule.nrw.de" }, "geometry": { "type": "Point", "coordinates": [ 6.830846833006313, 51.174879384807227 ] } },
    { "type": "Feature", "properties": { "Id": "0", "Schulnumme": "100298", "Schulform": "Grundschule", "Name": "Städtische Katholische Grundschule", "Kurzname": "Düsseldorf, KG Lohausen", "Adresse": "Im Grund 78", "Postleitza": "40474", "Ort": "Düsseldorf", "Schueler": "84", "Rufnummer": "02118992798", "Email": "100298@schule.nrw.de" }, "geometry": { "type": "Point", "coordinates": [ 6.737446188684336, 51.275664231086388 ] } },
    { "type": "Feature", "properties": { "Id": "0", "Schulnumme": "100304", "Schulform": "Grundschule", "Name": "Städtische Katholische Grundschule", "Kurzname": "Düsseldorf, KG Mettmanner Straße", "Adresse": "Hubbelrather Str. 13", "Postleitza": "40233", "Ort": "Düsseldorf", "Schueler": "220", "Rufnummer": "02118997971", "Email": "100304@schule.nrw.de" }, "geometry": { "type": "Point", "coordinates": [ 6.806679197211111, 51.223146940925851 ] } },
    { "type": "Feature", "properties": { "Id": "0", "Schulnumme": "100316", "Schulform": "Grundschule", "Name": "Städt. Kath. Grundschule", "Kurzname": "Düsseldorf, KG Höhenstr.", "Adresse": "Höhenstr. 5", "Postleitza": "40227", "Ort": "Düsseldorf", "Schueler": "199", "Rufnummer": "02118928261", "Email": "100316@schule.nrw.de" }, "geometry": { "type": "Point", "coordinates": [ 6.799637887870579, 51.216431406455627 ] } },
    { "type": "Feature", "properties": { "Id": "0", "Schulnumme": "100328", "Schulform": "Grundschule", "Name": "Gutenberg Schule", "Kurzname": "Düsseldorf, GG Gutenberg Schule", "Adresse": "Grafenberger Allee 384", "Postleitza": "40235", "Ort": "Düsseldorf", "Schueler": "455", "Rufnummer": "02118924469", "Email": "100328@schule.nrw.de" }, "geometry": { "type": "Point", "coordinates": [ 6.824394232912271, 51.240790296478643 ] } },
    { "type": "Feature", "properties": { "Id": "0", "Schulnumme": "100330", "Schulform": "Grundschule", "Name": "Städt. Gem. Grundschule Urdenbach", "Kurzname": "Düsseldorf, GG Urdenbach", "Adresse": "Garather Str. 16", "Postleitza": "40593", "Ort": "Düsseldorf", "Schueler": "291", "Rufnummer": "02118924450", "Email": "100330@schule.nrw.de" }, "geometry": { "type": "Point", "coordinates": [ 6.871712577281442, 51.146509082729622 ] } },
    { "type": "Feature", "properties": { "Id": "0", "Schulnumme": "100365", "Schulform": "Grundschule", "Name": "Volker-Rosin-Schule", "Kurzname": "Düsseldorf, GG Volker-Rosin-Schule", "Adresse": "Arnstadter Weg 6-16", "Postleitza": "40627", "Ort": "Düsseldorf", "Schueler": "265", "Rufnummer": "02118926420", "Email": "100365@schule.nrw.de" }, "geometry": { "type": "Point", "coordinates": [ 6.85251585181263, 51.21718026067699 ] } },
    { "type": "Feature", "properties": { "Id": "0", "Schulnumme": "100389", "Schulform": "Grundschule", "Name": "Städt. Gem. Grundschule", "Kurzname": "Düsseldorf, GG Deutzer Str.", "Adresse": "Deutzer Str. 102", "Postleitza": "40229", "Ort": "Düsseldorf", "Schueler": "161", "Rufnummer": "02118924793", "Email": "100389@schule.nrw.de" }, "geometry": { "type": "Point", "coordinates": [ 6.859155604130514, 51.191355631555361 ] } },
    { "type": "Feature", "properties": { "Id": "0", "Schulnumme": "100390", "Schulform": "Grundschule", "Name": "Städt. Gem. Grundschule", "Kurzname": "Düsseldorf, GG Am Köhnen", "Adresse": "Am Köhnen 73", "Postleitza": "40599", "Ort": "Düsseldorf", "Schueler": "232", "Rufnummer": "02118923970", "Email": "100390@schule.nrw.de" }, "geometry": { "type": "Point", "coordinates": [ 6.866475601559752, 51.179752816073957 ] } },
    { "type": "Feature", "properties": { "Id": "0", "Schulnumme": "100420", "Schulform": "Grundschule", "Name": "Carl Sonnenschein Schule", "Kurzname": "Düsseldorf, KG Carl Sonnenschein Schule", "Adresse": "Graf-Recke-Str. 153", "Postleitza": "40237", "Ort": "Düsseldorf", "Schueler": "426", "Rufnummer": "02118928340", "Email": "100420@schule.nrw.de" }, "geometry": { "type": "Point", "coordinates": [ 6.817320233012245, 51.243734329656988 ] } },
    { "type": "Feature", "properties": { "Id": "0", "Schulnumme": "100432", "Schulform": "Grundschule", "Name": "St.Bruno-Schule", "Kurzname": "Düsseldorf, KG St.Bruno-Schule", "Adresse": "An der Golzheimer Heide 120", "Postleitza": "40468", "Ort": "Düsseldorf", "Schueler": "172", "Rufnummer": "02118923695", "Email": "100432@schule.nrw.de" }, "geometry": { "type": "Point", "coordinates": [ 6.769166748831648, 51.267900197063817 ] } },
    { "type": "Feature", "properties": { "Id": "0", "Schulnumme": "100444", "Schulform": "Grundschule", "Name": "Paul-Klee-Schule", "Kurzname": "Düsseldorf, KG Paul-Klee-Schule", "Adresse": "Gerresheimer Str. 34-36", "Postleitza": "40211", "Ort": "Düsseldorf", "Schueler": "210", "Rufnummer": "02118923752", "Email": "100444@schule.nrw.de" }, "geometry": { "type": "Point", "coordinates": [ 6.794680598230299, 51.227867832866103 ] } },
    { "type": "Feature", "properties": { "Id": "0", "Schulnumme": "100468", "Schulform": "Grundschule", "Name": "Städt. Kath. Grundschule", "Kurzname": "Düsseldorf, KG Fuldaer Str.", "Adresse": "Fuldaer Str. 33", "Postleitza": "40229", "Ort": "Düsseldorf", "Schueler": "197", "Rufnummer": "02119215314", "Email": "100468@schule.nrw.de" }, "geometry": { "type": "Point", "coordinates": [ 6.837727084195141, 51.192031660050652 ] } },
    { "type": "Feature", "properties": { "Id": "0", "Schulnumme": "100470", "Schulform": "Grundschule", "Name": "Städt. Gem. Grundschule", "Kurzname": "Düsseldorf, GG Flurstr.", "Adresse": "Flurstr. 59", "Postleitza": "40235", "Ort": "Düsseldorf", "Schueler": "213", "Rufnummer": "02118924557", "Email": "100470@schule.nrw.de" }, "geometry": { "type": "Point", "coordinates": [ 6.816461785049118, 51.228582182106543 ] } },
    { "type": "Feature", "properties": { "Id": "0", "Schulnumme": "100481", "Schulform": "Grundschule", "Name": "Städt. Katholische Grundschule", "Kurzname": "Düsseldorf, KG Florensstraße", "Adresse": "Heinsenstr. 21", "Postleitza": "40221", "Ort": "Düsseldorf", "Schueler": "164", "Rufnummer": "02118924395", "Email": "100481@schule.nrw.de" }, "geometry": { "type": "Point", "coordinates": [ 6.741396378039515, 51.205922956810653 ] } },
    { "type": "Feature", "properties": { "Id": "0", "Schulnumme": "100493", "Schulform": "Grundschule", "Name": "Fleher Schule", "Kurzname": "Düsseldorf, KG Fleher Schule", "Adresse": "Fleher Str. 213", "Postleitza": "40223", "Ort": "Düsseldorf", "Schueler": "281", "Rufnummer": "0211153916", "Email": "100493@schule.nrw.de" }, "geometry": { "type": "Point", "coordinates": [ 6.769444888312854, 51.193744194011813 ] } },
    { "type": "Feature", "properties": { "Id": "0", "Schulnumme": "100500", "Schulform": "Grundschule", "Name": "Bonifatiusschule", "Kurzname": "Düsseldorf, KG Bonifatiusschule", "Adresse": "Fleher Str. 70", "Postleitza": "40223", "Ort": "Düsseldorf", "Schueler": "302", "Rufnummer": "02118922110", "Email": "100500@schule.nrw.de" }, "geometry": { "type": "Point", "coordinates": [ 6.766355633669786, 51.202570967343647 ] } },
    { "type": "Feature", "properties": { "Id": "0", "Schulnumme": "100523", "Schulform": "Grundschule", "Name": "St. Franziskus Schule", "Kurzname": "Düsseldorf, KG St. Franziskus Schule", "Adresse": "Herchenbachstr. 2", "Postleitza": "40470", "Ort": "Düsseldorf", "Schueler": "314", "Rufnummer": "02118924810", "Email": "100523@schule.nrw.de" }, "geometry": { "type": "Point", "coordinates": [ 6.809085114245449, 51.24998381116778 ] } },
    { "type": "Feature", "properties": { "Id": "0", "Schulnumme": "100535", "Schulform": "Grundschule", "Name": "Städt. Kath. Grundschule", "Kurzname": "Düsseldorf, KG Essener Str.", "Adresse": "Essener Str. 1", "Postleitza": "40476", "Ort": "Düsseldorf", "Schueler": "249", "Rufnummer": "02118923807", "Email": "100535@schule.nrw.de" }, "geometry": { "type": "Point", "coordinates": [ 6.784492322172037, 51.244052643751829 ] } },
    { "type": "Feature", "properties": { "Id": "0", "Schulnumme": "100547", "Schulform": "Grundschule", "Name": "St. Cäcilia Schule", "Kurzname": "Düsseldorf, KG St. Cäcilia Schule", "Adresse": "Erich-Müller-Str. 31", "Postleitza": "40597", "Ort": "Düsseldorf", "Schueler": "156", "Rufnummer": "02118928380", "Email": "100547@schule.nrw.de" }, "geometry": { "type": "Point", "coordinates": [ 6.86905981274838, 51.167154990633883 ] } },
    { "type": "Feature", "properties": { "Id": "0", "Schulnumme": "100560", "Schulform": "Grundschule", "Name": "Städt. Kath. Grundschule", "Kurzname": "Düsseldorf, KG Einsiedelstr.", "Adresse": "Einsiedelstr. 25", "Postleitza": "40597", "Ort": "Düsseldorf", "Schueler": "220", "Rufnummer": "02118922648", "Email": "100560@schule.nrw.de" }, "geometry": { "type": "Point", "coordinates": [ 6.88540806552565, 51.16313486225085 ] } },
    { "type": "Feature", "properties": { "Id": "0", "Schulnumme": "100572", "Schulform": "Grundschule", "Name": "Max-Schule", "Kurzname": "Düsseldorf, KG Max-Schule", "Adresse": "Citadellstr. 2 B", "Postleitza": "40213", "Ort": "Düsseldorf", "Schueler": "106", "Rufnummer": "02118992493", "Email": "100572@schule.nrw.de" }, "geometry": { "type": "Point", "coordinates": [ 6.770557079887793, 51.223174595186286 ] } },
    { "type": "Feature", "properties": { "Id": "0", "Schulnumme": "100584", "Schulform": "Grundschule", "Name": "St. Elisabeth Schule", "Kurzname": "Düsseldorf, KG St. Elisabeth Schule", "Adresse": "Buchenstr. 16", "Postleitza": "40599", "Ort": "Düsseldorf", "Schueler": "220", "Rufnummer": "0211744319", "Email": "100584@schule.nrw.de" }, "geometry": { "type": "Point", "coordinates": [ 6.860841470620591, 51.178750537125353 ] } },
    { "type": "Feature", "properties": { "Id": "0", "Schulnumme": "100596", "Schulform": "Grundschule", "Name": "St. Rochus-Schule", "Kurzname": "Düsseldorf, KG St. Rochus-Schule", "Adresse": "Blücherstr. 12", "Postleitza": "40477", "Ort": "Düsseldorf", "Schueler": "250", "Rufnummer": "02118928300", "Email": "100596@schule.nrw.de" }, "geometry": { "type": "Point", "coordinates": [ 6.782927265919494, 51.239948907109024 ] } },
    { "type": "Feature", "properties": { "Id": "0", "Schulnumme": "100602", "Schulform": "Grundschule", "Name": "Thomas-Schule", "Kurzname": "Düsseldorf, KG Thomas-Schule", "Adresse": "Blumenthalstr. 11", "Postleitza": "40476", "Ort": "Düsseldorf", "Schueler": "219", "Rufnummer": "02118924682", "Email": "100602@schule.nrw.de" }, "geometry": { "type": "Point", "coordinates": [ 6.780567385848339, 51.248789818209602 ] } },
    { "type": "Feature", "properties": { "Id": "0", "Schulnumme": "100638", "Schulform": "Grundschule", "Name": "Montessori-Grundschule Farnweg", "Kurzname": "Düsseldorf, GG Montessori-Schule", "Adresse": "Farnweg 10", "Postleitza": "40468", "Ort": "Düsseldorf", "Schueler": "331", "Rufnummer": "02114350990", "Email": "100638@schule.nrw.de" }, "geometry": { "type": "Point", "coordinates": [ 6.755784529435509, 51.266268302506063 ] } },
    { "type": "Feature", "properties": { "Id": "0", "Schulnumme": "100651", "Schulform": "Grundschule", "Name": "Adolf-Klarenbach-Schule", "Kurzname": "Düsseldorf, GG Adolf-Klarenbach", "Adresse": "Walther-Rathenau-Str. 15", "Postleitza": "40589", "Ort": "Düsseldorf", "Schueler": "258", "Rufnummer": "02118926190", "Email": "100651@schule.nrw.de" }, "geometry": { "type": "Point", "coordinates": [ 6.836141123301426, 51.170588593269308 ] } },
    { "type": "Feature", "properties": { "Id": "0", "Schulnumme": "100663", "Schulform": "Grundschule", "Name": "Städt. Gem. Grundschule Unterrath", "Kurzname": "Düsseldorf, GG Beedstr.", "Adresse": "Beedstr. 31", "Postleitza": "40468", "Ort": "Düsseldorf", "Schueler": "89", "Rufnummer": "02114791162", "Email": "100663@schule.nrw.de" }, "geometry": { "type": "Point", "coordinates": [ 6.783270217304818, 51.275713783933057 ] } },
    { "type": "Feature", "properties": { "Id": "0", "Schulnumme": "100675", "Schulform": "Grundschule", "Name": "Selma-Lagerlöf-Schule", "Kurzname": "Düsseldorf, GG Selma-Lagerlöf", "Adresse": "Schillstr. 7", "Postleitza": "40599", "Ort": "Düsseldorf", "Schueler": "203", "Rufnummer": "02118925700", "Email": "100675@schule.nrw.de" }, "geometry": { "type": "Point", "coordinates": [ 6.875142704925084, 51.178282782737433 ] } },
    { "type": "Feature", "properties": { "Id": "0", "Schulnumme": "100687", "Schulform": "Grundschule", "Name": "Friedrich-von-Bodelschwingh Schule", "Kurzname": "Düsseldorf, EG Friedrich-v.Bodelschwingh", "Adresse": "Cimbernstr. 24", "Postleitza": "40545", "Ort": "Düsseldorf", "Schueler": "324", "Rufnummer": "02115585930", "Email": "100687@schule.nrw.de" }, "geometry": { "type": "Point", "coordinates": [ 6.757397496818378, 51.229011744950483 ] } },
    { "type": "Feature", "properties": { "Id": "0", "Schulnumme": "100699", "Schulform": "Grundschule", "Name": "Joachim Neander Schule", "Kurzname": "Düsseldorf, GG Joachim Neander", "Adresse": "Rather Markt 2", "Postleitza": "40472", "Ort": "Düsseldorf", "Schueler": "273", "Rufnummer": "02119653337", "Email": "100699@schule.nrw.de" }, "geometry": { "type": "Point", "coordinates": [ 6.825799961650084, 51.267787949719015 ] } },
    { "type": "Feature", "properties": { "Id": "0", "Schulnumme": "100705", "Schulform": "Grundschule", "Name": "Brehm Schule", "Kurzname": "Düsseldorf, EG Brehm Schule", "Adresse": "Karl-Müller-Str. 25", "Postleitza": "40237", "Ort": "Düsseldorf", "Schueler": "468", "Rufnummer": "02118923941", "Email": "100705@schule.nrw.de" }, "geometry": { "type": "Point", "coordinates": [ 6.814036547916052, 51.234418672943647 ] } },
    { "type": "Feature", "properties": { "Id": "0", "Schulnumme": "100717", "Schulform": "Grundschule", "Name": "Elsa-Brandström-Schule", "Kurzname": "Düsseldorf, EG Elsa-Brandström-Schule", "Adresse": "An der Golzheimer Heide 120", "Postleitza": "40468", "Ort": "Düsseldorf", "Schueler": "215", "Rufnummer": "02118923692", "Email": "100717@schule.nrw.de" }, "geometry": { "type": "Point", "coordinates": [ 6.769166748831648, 51.267900197063817 ] } },
    { "type": "Feature", "properties": { "Id": "0", "Schulnumme": "100730", "Schulform": "Grundschule", "Name": "Martin-Luther-Schule", "Kurzname": "Düsseldorf, EG Martin-Luther-Schule", "Adresse": "Gotenstr. 20", "Postleitza": "40225", "Ort": "Düsseldorf", "Schueler": "225", "Rufnummer": "02118921729", "Email": "100730@schule.nrw.de" }, "geometry": { "type": "Point", "coordinates": [ 6.779467809349184, 51.196048428205295 ] } },
    { "type": "Feature", "properties": { "Id": "0", "Schulnumme": "100742", "Schulform": "Grundschule", "Name": "Matthias-Claudius-Schule", "Kurzname": "Düsseldorf, GG Matthias-Claudius-Schule", "Adresse": "Bongardstr. 9", "Postleitza": "40479", "Ort": "Düsseldorf", "Schueler": "392", "Rufnummer": "02118928310", "Email": "100742@schule.nrw.de" }, "geometry": { "type": "Point", "coordinates": [ 6.786473710363503, 51.23471884004281 ] } },
    { "type": "Feature", "properties": { "Id": "0", "Schulnumme": "100754", "Schulform": "Grundschule", "Name": "Hanna-Zürndorfer-Schule", "Kurzname": "Düsseldorf, EG Hanna-Zürndorfer-Schule", "Adresse": "Benderstr. 78", "Postleitza": "40625", "Ort": "Düsseldorf", "Schueler": "200", "Rufnummer": "02118928320", "Email": "100754@schule.nrw.de" }, "geometry": { "type": "Point", "coordinates": [ 6.852089668923239, 51.23771360675547 ] } },
    { "type": "Feature", "properties": { "Id": "0", "Schulnumme": "100766", "Schulform": "Grundschule", "Name": "Beckbusch-Schule", "Kurzname": "Düsseldorf, GG Beckbusch-Schule", "Adresse": "Beckbuschstr. 2", "Postleitza": "40474", "Ort": "Düsseldorf", "Schueler": "293", "Rufnummer": "02118994719", "Email": "100766@schule.nrw.de" }, "geometry": { "type": "Point", "coordinates": [ 6.751926871260262, 51.264827230930358 ] } },
    { "type": "Feature", "properties": { "Id": "0", "Schulnumme": "100778", "Schulform": "Grundschule", "Name": "Städt. Gem. Grundschule Lörick", "Kurzname": "Düsseldorf, GG Wickrather Str.", "Adresse": "Wickrather Str. 31", "Postleitza": "40547", "Ort": "Düsseldorf", "Schueler": "273", "Rufnummer": "02118924635", "Email": "100778@schule.nrw.de" }, "geometry": { "type": "Point", "coordinates": [ 6.732479975888539, 51.243442895644115 ] } },
    { "type": "Feature", "properties": { "Id": "0", "Schulnumme": "100780", "Schulform": "Grundschule", "Name": "Städt. Gem. Grundschule", "Kurzname": "Düsseldorf, GG Vennhauser Allee", "Adresse": "Vennhauser Allee 160-162", "Postleitza": "40627", "Ort": "Düsseldorf", "Schueler": "206", "Rufnummer": "02118926630", "Email": "100780@schule.nrw.de" }, "geometry": { "type": "Point", "coordinates": [ 6.856060092737697, 51.205931418891488 ] } },
    { "type": "Feature", "properties": { "Id": "0", "Schulnumme": "100791", "Schulform": "Grundschule", "Name": "Städt. Gem. Grundschule", "Kurzname": "Düsseldorf, GG Südallee", "Adresse": "Südallee 100", "Postleitza": "40593", "Ort": "Düsseldorf", "Schueler": "287", "Rufnummer": "02118928400", "Email": "100791@schule.nrw.de" }, "geometry": { "type": "Point", "coordinates": [ 6.882181699429097, 51.154568563560382 ] } },
    { "type": "Feature", "properties": { "Id": "0", "Schulnumme": "100808", "Schulform": "Grundschule", "Name": "Städt. Gem. Grundschule", "Kurzname": "Düsseldorf, GG Sonnenstr.", "Adresse": "Sonnenstr. 10", "Postleitza": "40227", "Ort": "Düsseldorf", "Schueler": "302", "Rufnummer": "02118924780", "Email": "100808@schule.nrw.de" }, "geometry": { "type": "Point", "coordinates": [ 6.792423428799564, 51.212778979277218 ] } },
    { "type": "Feature", "properties": { "Id": "0", "Schulnumme": "100810", "Schulform": "Grundschule", "Name": "Städt. Gem. Grundschule", "Kurzname": "Düsseldorf, GG Konkordiastr.", "Adresse": "Konkordiastr. 26", "Postleitza": "40219", "Ort": "Düsseldorf", "Schueler": "251", "Rufnummer": "02118923662", "Email": "100810@schule.nrw.de" }, "geometry": { "type": "Point", "coordinates": [ 6.769505427197084, 51.21559990321385 ] } },
    { "type": "Feature", "properties": { "Id": "0", "Schulnumme": "100821", "Schulform": "Grundschule", "Name": "Don-Bosco-Montessori-Schule", "Kurzname": "Düsseldorf, GG Don-Bosco-Montessori-Schu", "Adresse": "Salierstr. 37", "Postleitza": "40545", "Ort": "Düsseldorf", "Schueler": "183", "Rufnummer": "02118925650", "Email": "100821@schule.nrw.de" }, "geometry": { "type": "Point", "coordinates": [ 6.757554594302945, 51.229905125476812 ] } },
    { "type": "Feature", "properties": { "Id": "0", "Schulnumme": "100833", "Schulform": "Grundschule", "Name": "Städt. Gem. Grundschule", "Kurzname": "Düsseldorf, GG Rolandstr.", "Adresse": "Rolandstr. 40", "Postleitza": "40476", "Ort": "Düsseldorf", "Schueler": "364", "Rufnummer": "02118923780", "Email": "100833@schule.nrw.de" }, "geometry": { "type": "Point", "coordinates": [ 6.776500323338333, 51.245465918427001 ] } },
    { "type": "Feature", "properties": { "Id": "0", "Schulnumme": "100845", "Schulform": "Grundschule", "Name": "Städt. Gem. Grundschule", "Kurzname": "Düsseldorf, GG Richardstr.", "Adresse": "Richardstr. 14", "Postleitza": "40231", "Ort": "Düsseldorf", "Schueler": "321", "Rufnummer": "02118923951", "Email": "100845@schule.nrw.de" }, "geometry": { "type": "Point", "coordinates": [ 6.837637207961038, 51.204953749953049 ] } },
    { "type": "Feature", "properties": { "Id": "0", "Schulnumme": "100869", "Schulform": "Grundschule", "Name": "Städtische Gemeinschaftsgrundschule", "Kurzname": "Düsseldorf, GG Wrangelstraße", "Adresse": "Wrangelstr. 40", "Postleitza": "40470", "Ort": "Düsseldorf", "Schueler": "211", "Rufnummer": "02118992880", "Email": "100869@schule.nrw.de" }, "geometry": { "type": "Point", "coordinates": [ 6.809326745569746, 51.25575318709641 ] } },
    { "type": "Feature", "properties": { "Id": "0", "Schulnumme": "100870", "Schulform": "Grundschule", "Name": "Städtische Gemeinschaftsgrundschule", "Kurzname": "Düsseldorf, GG Neustrelitzer Str.", "Adresse": "Neustrelitzer Str. 10", "Postleitza": "40595", "Ort": "Düsseldorf", "Schueler": "129", "Rufnummer": "02118926770", "Email": "100870@schule.nrw.de" }, "geometry": { "type": "Point", "coordinates": [ 6.897761022917543, 51.149723384804823 ] } },
    { "type": "Feature", "properties": { "Id": "0", "Schulnumme": "100882", "Schulform": "Grundschule", "Name": "Grundschule Schloss Benrath", "Kurzname": "Düsseldorf, GG Schloss Benrath", "Adresse": "Erich-Müller-Str. 31", "Postleitza": "40597", "Ort": "Düsseldorf", "Schueler": "178", "Rufnummer": "02118928360", "Email": "100882@schule.nrw.de" }, "geometry": { "type": "Point", "coordinates": [ 6.86905981274838, 51.167154990633883 ] } },
    { "type": "Feature", "properties": { "Id": "0", "Schulnumme": "100894", "Schulform": "Grundschule", "Name": "Städt. Gem. Grundschule", "Kurzname": "Düsseldorf, GG Max-Halbe-Straße", "Adresse": "Max-Halbe-Str. 14", "Postleitza": "40470", "Ort": "Düsseldorf", "Schueler": "224", "Rufnummer": "02118923650", "Email": "100894@schule.nrw.de" }, "geometry": { "type": "Point", "coordinates": [ 6.809159530457549, 51.252035729651482 ] } },
    { "type": "Feature", "properties": { "Id": "0", "Schulnumme": "100900", "Schulform": "Grundschule", "Name": "Theodor-Heuss-Schule", "Kurzname": "Düsseldorf, GG Theodor-Heuss-Schule", "Adresse": "Lützenkircher Str. 2", "Postleitza": "40591", "Ort": "Düsseldorf", "Schueler": "206", "Rufnummer": "02118927651", "Email": "100900@schule.nrw.de" }, "geometry": { "type": "Point", "coordinates": [ 6.822922572538847, 51.186073064754716 ] } },
    { "type": "Feature", "properties": { "Id": "0", "Schulnumme": "100924", "Schulform": "Grundschule", "Name": "Astrid-Lindgren-Schule", "Kurzname": "Düsseldorf, GG Astrid-Lindgren-Schule", "Adresse": "Leuthenstr. 50", "Postleitza": "40231", "Ort": "Düsseldorf", "Schueler": "291", "Rufnummer": "02118926620", "Email": "100924@schule.nrw.de" }, "geometry": { "type": "Point", "coordinates": [ 6.840456211692631, 51.21263235807303 ] } },
    { "type": "Feature", "properties": { "Id": "0", "Schulnumme": "100936", "Schulform": "Grundschule", "Name": "Städt. Gem. Grundschule", "Kurzname": "Düsseldorf, GG Lennestr.", "Adresse": "Lennestr. 5", "Postleitza": "40477", "Ort": "Düsseldorf", "Schueler": "199", "Rufnummer": "02114846801", "Email": "100936@schule.nrw.de" }, "geometry": { "type": "Point", "coordinates": [ 6.79061299397954, 51.239221921413893 ] } },
    { "type": "Feature", "properties": { "Id": "0", "Schulnumme": "100950", "Schulform": "Grundschule", "Name": "Städt. Gem. Grundschule", "Kurzname": "Düsseldorf, GG Krahnenburgstraße", "Adresse": "Krahnenburgstr. 15", "Postleitza": "40472", "Ort": "Düsseldorf", "Schueler": "294", "Rufnummer": "02118923505", "Email": "100950@schule.nrw.de" }, "geometry": { "type": "Point", "coordinates": [ 6.796733529777443, 51.285015494507007 ] } },
    { "type": "Feature", "properties": { "Id": "0", "Schulnumme": "100961", "Schulform": "Grundschule", "Name": "Städt. Gem. Grundschule", "Kurzname": "Düsseldorf, GG Kronprinzenstr.", "Adresse": "Kronprinzenstr. 107", "Postleitza": "40217", "Ort": "Düsseldorf", "Schueler": "336", "Rufnummer": "02118924667", "Email": "100961@schule.nrw.de" }, "geometry": { "type": "Point", "coordinates": [ 6.769280070498343, 51.210190432161895 ] } },
    { "type": "Feature", "properties": { "Id": "0", "Schulnumme": "100973", "Schulform": "Grundschule", "Name": "Regenbogenschule", "Kurzname": "Düsseldorf, GG Regenbogenschule", "Adresse": "Kirchfeldstr. 74-80", "Postleitza": "40215", "Ort": "Düsseldorf", "Schueler": "210", "Rufnummer": "02118924761", "Email": "100973@schule.nrw.de" }, "geometry": { "type": "Point", "coordinates": [ 6.779488614825727, 51.212579117504561 ] } },
    { "type": "Feature", "properties": { "Id": "0", "Schulnumme": "100985", "Schulform": "Grundschule", "Name": "Sternwartschule", "Kurzname": "Düsseldorf, GG Sternwartschule", "Adresse": "Im Dahlacker 15", "Postleitza": "40223", "Ort": "Düsseldorf", "Schueler": "219", "Rufnummer": "02118922118", "Email": "100985@schule.nrw.de" }, "geometry": { "type": "Point", "coordinates": [ 6.767805387384233, 51.202787511227015 ] } },
    { "type": "Feature", "properties": { "Id": "0", "Schulnumme": "101000", "Schulform": "Grundschule", "Name": "Ferdinand-Heye-Schule", "Kurzname": "Düsseldorf, GG Ferdinand-Heye-Schule", "Adresse": "Heyestr. 91", "Postleitza": "40625", "Ort": "Düsseldorf", "Schueler": "163", "Rufnummer": "02118923763", "Email": "101000@schule.nrw.de" }, "geometry": { "type": "Point", "coordinates": [ 6.861582065153117, 51.227652897430239 ] } },
    { "type": "Feature", "properties": { "Id": "0", "Schulnumme": "101011", "Schulform": "Grundschule", "Name": "Städt. Gem. Grundschule Stoffeler Straße", "Kurzname": "Düsseldorf, GG Stoffeler Straße", "Adresse": "Schmiedestr. 10a", "Postleitza": "40227", "Ort": "Düsseldorf", "Schueler": "240", "Rufnummer": "02118999812", "Email": "101011@schule.nrw.de" }, "geometry": { "type": "Point", "coordinates": [ 6.807664664548376, 51.210547423248329 ] } },
    { "type": "Feature", "properties": { "Id": "0", "Schulnumme": "101023", "Schulform": "Grundschule", "Name": "Heinrich-Heine-Schule", "Kurzname": "Düsseldorf, GG (Verb.) Heinrich-Heine", "Adresse": "Heerdter Landstr. 186", "Postleitza": "40549", "Ort": "Düsseldorf", "Schueler": "401", "Rufnummer": "02118926400", "Email": "101023@schule.nrw.de" }, "geometry": { "type": "Point", "coordinates": [ 6.705810308055393, 51.23085344046099 ] } },
    { "type": "Feature", "properties": { "Id": "0", "Schulnumme": "101047", "Schulform": "Grundschule", "Name": "Städt. Gem. Grundschule", "Kurzname": "Düsseldorf, GG Helmholtzstr.", "Adresse": "Helmholtzstr. 16", "Postleitza": "40215", "Ort": "Düsseldorf", "Schueler": "288", "Rufnummer": "02118921780", "Email": "101047@schule.nrw.de" }, "geometry": { "type": "Point", "coordinates": [ 6.788550442877501, 51.215610756605386 ] } },
    { "type": "Feature", "properties": { "Id": "0", "Schulnumme": "101059", "Schulform": "Grundschule", "Name": "Städt. Gem. Grundschule", "Kurzname": "Düsseldorf, GG Adam-Stegerwald-Str.", "Adresse": "Adam-Stegerwald-Str. 14", "Postleitza": "40595", "Ort": "Düsseldorf", "Schueler": "186", "Rufnummer": "02118924800", "Email": "101059@schule.nrw.de" }, "geometry": { "type": "Point", "coordinates": [ 6.905181885293096, 51.142787646573773 ] } },